[
    {
      "address": "BUCURESTI,Bd. Lacul Tei nr.119, bl.5A1, sc.1, ap.1, sector 2",
      "name": "SC HOME MEDICAL ASSISTANCE SRL",
      "phone": "0314172896; 0736942018",
      "specialty": "Ingrijiri medicale la domiciliu",
      "lat": 44.462644,
      "lng": 26.12015
    },
    {
      "address": "BUCURESTI, Str. Calea Rahovei nr.266-268, bl.3, ap.30 sector 5",
      "name": "SC MEDICAL DIVERS HELP SRL",
      "phone": "0371015744; 0371012479",
      "specialty": "Ingrijiri medicale la domiciliu",
      "lat": 44.41554319999999,
      "lng": 26.0754372
    },
    {
      "address": "BUCURESTI, Str. Dealului, nr. 8, bl. F6 , sc. 3 , et. -, Ap. 49, sectorul 6",
      "name": "SC DOMUM CURATIO SRL",
      "phone": "740301949",
      "specialty": "Ingrijiri medicale la domiciliu",
      "lat": 44.4434297,
      "lng": 26.0341635
    },
    {
      "address": "BUCURESTI, Str. Pache Protopopescu nr.119, sector 2",
      "name": "SC ASIST MED KIN SRL",
      "phone": "753415898",
      "specialty": "Ingrijiri medicale la domiciliu",
      "lat": 44.4409249,
      "lng": 26.1309718
    },
    {
      "address": "BUCURESTI,Str. Drm. Valea Furcii,nr.93A, bl.PJ5, ap.16,Sector6",
      "name": "SC ANUBITA MEDICAL SRL",
      "phone": "737489667",
      "specialty": "Ingrijiri medicale la domiciliu",
      "lat": 44.4134874,
      "lng": 26.0068687
    },
    {
      "address": "BUCURESTI, Str. Lanariei nr.101,bl-, ap.1-3 , sector 4",
      "name": "SC AM TECH DISTRIBUTION SRL",
      "phone": "0721904738; 0767619223; 0213353981",
      "specialty": "Ingrijiri medicale la domiciliu",
      "lat": 44.415315,
      "lng": 26.102085
    },
    {
      "address": "BUCURESTI Str. Mihai Viteazu nr.3 sector 1",
      "name": "SC TOP MED ASSISTANCE SRL",
      "phone": "213105934",
      "specialty": "Ingrijiri medicale la domiciliu",
      "lat": 44.4897857,
      "lng": 26.0255397
    },
    {
      "address": "Aleea Suter, nr. 3, sect 4",
      "name": "ASOCIATIA CENTRUL DE INGRIJIRE CASA SUTER",
      "phone": "213373939",
      "specialty": "Ingrijiri medical la domiciliu",
      "lat": 44.4176095,
      "lng": 26.0924766
    },
    {
      "address": "BUCURESTI, bdl. Nicolae Grigorescu nr. 41, sector 3",
      "name": "SOCIETATEA MEDICALA PENTRU PREVENTIE SI PROFILAXIE IN SANATATE MINTALA",
      "phone": "769659490",
      "specialty": "Ingrijiri medicale la domiciliu",
      "lat": 44.4206258,
      "lng": 26.1651401
    },
    {
      "address": "BUCURESTI, Str. Gral IOAN CULCER nr.76, sector 6",
      "name": "SC FERTILIA MEDICAL CENTER SRL",
      "phone": "724500020",
      "specialty": "Ingrijiri medicale la domiciliu",
      "lat": 44.4212089,
      "lng": 26.0557301
    },
    {
      "address": "BUCURESTI, Str. Sos. Uverturii nr.81 sector 6",
      "name": "SC DOCTOR HOUSE SRL",
      "phone": "0314253556; 0725220948",
      "specialty": "Ingrijiri medicale la domiciliu",
      "lat": 44.4382492,
      "lng": 26.0294679
    },
    {
      "address": "BUCURESTI, Str. Trifoi nr.12, ap.1, sector 3",
      "name": "SC MEDIKON EXPERT SRL",
      "phone": "0213230057 ; 0744588038",
      "specialty": "Ingrijiri medicale la domiciliu",
      "lat": 44.43173460000001,
      "lng": 26.12516
    },
    {
      "address": "BUCURESTI,Str. OBOGA nr.5, bl.160, sc.2 et.9 ap.83 sector 6",
      "name": "ASOCIATIA COMPLEX CARE",
      "phone": "765483425",
      "specialty": "Ingrijiri medicale la domiciliu",
      "lat": 44.4322236,
      "lng": 26.0076964
    },
    {
      "address": "BUCURESTI, Str. Timisoara nr.39, bl.P15 ap.57, sector 6",
      "name": "ASOCIATIA MEDICALA SFINTII ARHANGHELI",
      "phone": "0730318353; 0762372057",
      "specialty": "Ingrijiri medicale la domiciliu",
      "lat": 44.427535,
      "lng": 26.03785
    },
    {
      "address": "BUCURESTI,Str. Prelungirea Ghencea nr. 94-100.bl.A2, ap.A2011, sector 6",
      "name": "SC HEALTH CARE SOLUTIONS SRL",
      "phone": "749128332",
      "specialty": "Ingrijiri medicale la domiciliu",
      "lat": 44.4112654,
      "lng": 26.0065891
    },
    {
      "address": "BUCURESTI, Str. Dristorului, nr. 81/88, bl. B13 , sc. A , et. 8, Ap. 62, sectorul 3",
      "name": "SC MEDICAL SOLUTIONS CENTER SRL",
      "phone": "756122254",
      "specialty": "Ingrijiri medicale la domiciliu",
      "lat": 44.424905,
      "lng": 26.1365589
    },
    {
      "address": "BUCURESTI, Str. Petre Ispirescu nr.38,bl.P72B,ap.12, sector 5",
      "name": "SC PROHEALTH CENTER SRL",
      "phone": "725544115",
      "specialty": "Ingrijiri medicale la domiciliu",
      "lat": 44.4160255,
      "lng": 26.060214
    },
    {
      "address": "BUCURESTI, Str. Sperantei, nr. 27, ap. 1 , parter, cam.13 sectorul 2",
      "name": "SC LMM HOME CARE SRL",
      "phone": "722789868",
      "specialty": "Ingrijiri medicale la domiciliu",
      "lat": 44.43948700000001,
      "lng": 26.1094481
    },
    {
      "address": "BUCURESTI,Str. Lt. Aurel Botea nr.8,bl.B6,ap.24, sector 3",
      "name": "SC MEDICAL HEALTCARE EXPERT SRL",
      "phone": "735211264",
      "specialty": "Ingrijiri medicale la domiciliu",
      "lat": 44.4236618,
      "lng": 26.13375
    },
    {
      "address": "BUCURESTI,Str. Novaci nr. 8, bl. TD 35, AP.63, Sector 5",
      "name": "SC VITAL HOME CARE SRL",
      "phone": "744650615",
      "specialty": "Ingrijiri medicale la domiciliu",
      "lat": 44.4174278,
      "lng": 26.0652857
    },
    {
      "address": "BUCURESTI, Str. Dinicu Golescu nr.23-25, Sc.3, et.1, ap.13, sector 1",
      "name": "SC SORICA IMPEX SRL",
      "phone": "766672704",
      "specialty": "Ingrijiri medicale la domiciliu",
      "lat": 44.4443308,
      "lng": 26.0756561
    },
    {
      "address": "BUCURESTI, Str. Valea Doftanei nr.113, sector 6",
      "name": "SC BAU M.A.N CONSTRUCT SRL",
      "phone": "314326555",
      "specialty": "Ingrijiri medicale la domiciliu",
      "lat": 44.4178498,
      "lng": 26.0029253
    },
    {
      "address": "BUCURESTI,Str. Regina Maria nr.27, bl-,ap.3,Sector 4",
      "name": "SC. VINCI MEDICAL SRL",
      "phone": "0213350497; 0758555577",
      "specialty": "Ingrijiri medicale la domiciliu",
      "lat": 44.4225629,
      "lng": 26.0926061
    },
    {
      "address": "BUCURESTI, Atr. Matei Voievod nr.29, scara A, et.2 Birou E 2.9, sector 2",
      "name": "SC LUCO MED HOME CARE SRL",
      "phone": "216422068",
      "specialty": "Ingrijiri medicale la domiciliu",
      "lat": 44.4384163,
      "lng": 26.1260621
    },
    {
      "address": "BUCURESTI, Str. Cercetatorilor nr.10, bl.35, ap.91, sector 4",
      "name": "SC ALMACARE MEDICAL SRL",
      "phone": "726902967",
      "specialty": "Ingrijiri medicale la domiciliu",
      "lat": 44.3900341,
      "lng": 26.13243
    },
    {
      "address": "BUCURESTI, Bd. Ghencea nr.43B, Sector 6",
      "name": "SC SANOCARE MEDICAL CENTER SRL",
      "phone": "723257520",
      "specialty": "Ingrijiri medicale la domiciliu",
      "lat": 44.415219,
      "lng": 26.0474667
    },
    {
      "address": "BUCURESTI,Strada Inclinata nr.1-3, birou 8, Sector 5",
      "name": "SC DOCTOR CARE SRL",
      "phone": "0758040765; 0758040766",
      "specialty": "Ingrijiri medicale la domiciliu",
      "lat": 44.409824,
      "lng": 26.089755
    },
    {
      "address": "BUCURESTI, Str. Zidurilor nr. 15, ap. Parter P3-birou, sector 2",
      "name": "SC MEDICAL HOME SOLUTION SRL",
      "phone": "742088001",
      "specialty": "Ingrijiri medicale la domiciliu",
      "lat": 44.44546649999999,
      "lng": 26.1334227
    },
    {
      "address": "BUCURESTI, Str. Intrarea Glucozei, nr. 11, sectorul 2",
      "name": "SC SILMA MED CONCEPT SRL",
      "phone": "723537052",
      "specialty": "Ingrijiri medicale la domiciliu",
      "lat": 44.4669006,
      "lng": 26.1133189
    },
    {
      "address": "Sos. Oltenitei nr.254, bl.151,ap.44 sector 4",
      "name": "SC MAVRO SERV-MED SRL BUCURESTI",
      "phone": "0213345871; 0728223364",
      "specialty": "Ingrijiri medicale la domiciliu",
      "lat": 44.385749,
      "lng": 26.138713
    },
    {
      "address": "BUCURESTI, Str. Dudesti nr.104-122,bl-, ap.-,Sector 3",
      "name": "SC CHRISTIAN INGRIJIRI PALIATIVE LA DOMICILIU SRL",
      "phone": "721593740",
      "specialty": "Ingrijiri medicale la domiciliu",
      "lat": 44.4238069,
      "lng": 26.125175
    },
    {
      "address": "BUCURESTI,Cap. Eremia Popescu nr.21, sector 4",
      "name": "SC CLINICA PRIVATA DR. FILIP SRL",
      "phone": "0213340071; 0721152872",
      "specialty": "Ingrijiri medicale la domiciliu",
      "lat": 44.3827101,
      "lng": 26.1377534
    },
    {
      "address": "BUCURESTI, Str. Luntrei nr.2-4, bl.8, sp.1 sector2",
      "name": "SC P.U.S.A. MEDICAL CARE SRL",
      "phone": "737228339",
      "specialty": "Ingrijiri medicale la domiciliu",
      "lat": 44.4622051,
      "lng": 26.1309639
    },
    {
      "address": "BUCURESTI, Sos. Fundeni nr. 74 Sector 2",
      "name": "SOCIETATEA INTER HEALTH SYSTEMS S.A.",
      "phone": "212552350",
      "specialty": "Ingrijiri medicale la domiciliu",
      "lat": 44.4494709,
      "lng": 26.166145
    },
    {
      "address": "BUCURESTI, Str. Catanoaia nr.12, sector 3",
      "name": "SC PROF MEDICAL NURSING SRL",
      "phone": "747612339",
      "specialty": "Ingrijiri medicale la domiciliu",
      "lat": 44.4263357,
      "lng": 26.2144307
    },
    {
      "address": "BUCURESTI, Bd. Dimitrie Cantemir nr.13, bl.11, ap.29, sector 4",
      "name": "SC MEDICAL UNIT SRL",
      "phone": "0745076929; 0731135391",
      "specialty": "Ingrijiri medicale la domiciliu",
      "lat": 44.4207587,
      "lng": 26.1044253
    },
    {
      "address": "BUCURESTI, Str. Sachelarie Visarion nr.63, bl-, ap-, Sector 3",
      "name": "SC PALEATIV MEDICAL EXPERT SRL",
      "phone": "213103350",
      "specialty": "Ingrijiri medicale la domiciliu",
      "lat": 44.4431075,
      "lng": 26.1388167
    },
    {
      "address": "BUCURESTI, Str. Bd. Marasesti nr.90, bl-, ap-, sector 4",
      "name": "SC IDS LABORATORIES SRL",
      "phone": "213010483",
      "specialty": "Ingrijiri medicale la domiciliu",
      "lat": 44.4221052,
      "lng": 26.1076664
    },
    {
      "address": "BUCURESTI, Str. Sergiu Dumitru nr.3, ap.2, sector 1",
      "name": "SC CENTRUL MEDICAL SANA SRL",
      "phone": "0212128222; 0723698920; 0726340440;",
      "specialty": "Ingrijiri medicale la domiciliu",
      "lat": 44.4496204,
      "lng": 26.0824911
    },
    {
      "address": "BUCURESTI, Str. Stelea Spataru nr.8, sector 3",
      "name": "SC SALVITAE SRL",
      "phone": "0736325649; 0744487330",
      "specialty": "Ingrijiri medicale la domiciliu",
      "lat": 44.4317669,
      "lng": 26.1081679
    },
    {
      "address": "BUCURESTI,Tuturelelor nr.11A,BL.-, ap. -,sector 3",
      "name": "SC BROTAC MEDICAL CENTER SRL",
      "phone": "722387173",
      "specialty": "Ingrijiri medicale la domiciliu",
      "lat": 44.427135,
      "lng": 26.125498
    },
    {
      "address": "BUCURESTI,Str. Maria Rosetti, nr.5 corp.A, DEMISOL",
      "name": "SC SOROX MED SRL",
      "phone": "0737319815; 0216596006",
      "specialty": "Ingrijiri medicale la domiciliu",
      "lat": 44.442048,
      "lng": 26.1061144
    },
    {
      "address": "BUCURESTI, Str. Tudor Gociu nr.47, sector 4",
      "name": "SC INA MEDICAL EXPERT SRL",
      "phone": "0314251363; 0726019618; 0764866157;",
      "specialty": "Ingrijiri medicale la domiciliu",
      "lat": 44.3729987,
      "lng": 26.0942053
    },
    {
      "address": "BUCURESTI, Str. Ramnicu Valcea, nr. 22, bl. 31, Sc. 1, parter,ap.4, Sector 3",
      "name": "SC ART MED HELP SRL",
      "phone": "722527325",
      "specialty": "Ingrijiri medicale la domiciliu",
      "lat": 44.413348,
      "lng": 26.139819
    },
    {
      "address": "BUCURESTI, Str. Aura Buzescu nr.24 C 1 (Corp cladire) Parter Camera 1 Camera 2, Sector 2",
      "name": "SC INVESTIGMED FOR LIFE SRL",
      "phone": "725666633",
      "specialty": "Ingrijiri medicale la domiciliu",
      "lat": 44.4387262,
      "lng": 26.1464293
    },
    {
      "address": "BUCURESTI,Str.Doamna Ghica, nr.20,bl.4,ap.19,sector.2",
      "name": "SC EBY SANATATE SRL",
      "phone": "031/4168667; 0768150704; 0722240614;",
      "specialty": "Ingrijiri medicale la domiciliu",
      "lat": 44.4585088,
      "lng": 26.137004
    },
    {
      "address": "BUCURESTI,Str. G-ral Praporgescu nr.1-5 , etaj:Supanta, sector 1",
      "name": "SC C.M.D.T PROMEMORIA SRL",
      "phone": "0213106639; 0735537507",
      "specialty": "Ingrijiri medicale la domiciliu",
      "lat": 44.43888,
      "lng": 26.1043845
    },
    {
      "address": "BUCURESTI, Str. Titus nr.8, sector 4",
      "name": "SC DR. ROSCA MEDICAL CENTER SRL",
      "phone": "215394950",
      "specialty": "Ingrijiri medicale la domiciliu",
      "lat": 44.422094,
      "lng": 26.097794
    },
    {
      "address": "BUCURESTI, Str. Lanariei nr.101, camera 4, sector 4",
      "name": "SC VIZIT MED SRL",
      "phone": "724497435",
      "specialty": "Ingrijiri medicale la domiciliu",
      "lat": 44.415315,
      "lng": 26.102085
    },
    {
      "address": "BUCURESTI, Str. Av. Petre Cretu nr.38, Sector 1",
      "name": "SC ANTOS GROUP DOCTOR ACASA SRL",
      "phone": "727385106",
      "specialty": "Ingrijiri medicale la domiciliu",
      "lat": 44.4676652,
      "lng": 26.0692617
    },
    {
      "address": "BUCURESTI, Str. Magura Vulturului nr.75, sector 2",
      "name": "SC GAMA CLINIC CENTER SRL",
      "phone": "0212568176; 0212568190; 0757888886; 0721274572",
      "specialty": "Ingrijiri medicale la domiciliu",
      "lat": 44.443226,
      "lng": 26.136771
    },
    {
      "address": "BUCURESTI, Sos. Virtutii nr. 11, bl.R 5a, AP.28, SECTOR 6",
      "name": "SC MEDICAL CLASS TWO SRL.",
      "phone": "720011789",
      "specialty": "Ingrijiri medicale la domiciliu",
      "lat": 44.439226,
      "lng": 26.034766
    },
    {
      "address": "BUCURESTI, Str. Nicolae Constantinescu nr.66, bl-, mansarda, sector 1",
      "name": "SC DEBIKA MEDICAL EXPERT SRL",
      "phone": "021/2339783; 0724960980",
      "specialty": "Ingrijiri medicale la domiciliu",
      "lat": 44.4625035,
      "lng": 26.0998593
    },
    {
      "address": "BUCURESTI, Str. Constantin Manescu, nr.1 bl.-, ap.2, sector 5",
      "name": "SC HOME MEDICAL THERAPY SRL",
      "phone": "314120618",
      "specialty": "Ingrijiri medicale la domiciliu",
      "lat": 44.40426,
      "lng": 26.095334
    },
    {
      "address": "BUCURESTI, Limpejoarei nr.14 bl.-, ap.1, Sector 1",
      "name": "SC GERMAN GUARD DIVIZIA MEDICALA SRL",
      "phone": "021/6670170; 0722464890",
      "specialty": "Ingrijiri medicale la domiciliu",
      "lat": 44.485868,
      "lng": 26.054876
    },
    {
      "address": "BUCURESTI, Calea 13 Septembrie nr.221-223-225, et.3, Incinta Complex Comercial Prosper PLAZA , Sector 5",
      "name": "SC MEDIC LINE BUSINESS HEALTH SRL",
      "phone": "0213128282; 0766116111",
      "specialty": "Ingrijiri medicale la domiciliu",
      "lat": 44.42001399999999,
      "lng": 26.065477
    },
    {
      "address": "BUCURESTI, Str. Bauxitei nr.16, sector 1",
      "name": "SC MICON LIFE SRL",
      "phone": "722412410",
      "specialty": "Ingrijiri medicale la domiciliu",
      "lat": 44.490939,
      "lng": 26.024792
    },
    {
      "address": "BUCURESTI, Str.Tulnici nr.6 bl.45 ap.3 sector 4",
      "name": "SC ALFA MEDICAL SERVICES SRL",
      "phone": "0216342341/0319495 tasta 5; 0729991260;",
      "specialty": "Ingrijiri medicale la domiciliu",
      "lat": 44.3879226,
      "lng": 26.1312655
    },
    {
      "address": "BUCURESTI, Drm.Valea Furcii, nr.96A ,bl.PJ.5, ap.16,Sector 6",
      "name": "SC TASIA MED SRL",
      "phone": "737036288",
      "specialty": "Ingrijiri medicale la domiciliu",
      "lat": 44.4134256,
      "lng": 26.0063555
    },
    {
      "address": "BUCURESTI, Str. Tulnici nr. 10 BL.40, PARTER, AP.3, Sector 4",
      "name": "CENTRUL MEDICAL DAVA",
      "phone": "216367475",
      "specialty": "Ingrijiri medicale la domiciliu",
      "lat": 44.386277,
      "lng": 26.129479
    },
    {
      "address": "BUCURESTI,Str. Mitropolit Filaret nr.38, Parter, cam.1-cam.2,Sector 4",
      "name": "SC EVITA MEDICAL SRL",
      "phone": "0213351314; 0732121442; 0732121444",
      "specialty": "Ingrijiri medicale la domiciliu",
      "lat": 44.4187752,
      "lng": 26.0913331
    },
    {
      "address": "BUCURESTI, Constantin F. Robescu nr.12, Mansarda Camera 2 si 3, Sector 3",
      "name": "SC DOCTOR PLANTARIS SRL",
      "phone": "720884788",
      "specialty": "Ingrijiri medicale la domiciliu",
      "lat": 44.432486,
      "lng": 26.1095128
    },
    {
      "address": "BUCURESTI,Str.Malcoci nr.4, Policlinica Rahova , Corp A, Parter, Incaperile Pozitiile nr. 2 si 3, Sector 5",
      "name": "SC CLARITAS SERVICII MEDICALE SRL",
      "phone": "723219194",
      "specialty": "Ingrijiri medicale la domiciliu",
      "lat": 44.4092536,
      "lng": 26.071101
    },
    {
      "address": "BUCURESTI, Str. DR. Grozovici nr.1, pavilion 6, Sector 2",
      "name": "SC MEDICAL ANDRESAN SRL",
      "phone": "0761614139; 0762648969",
      "specialty": "Ingrijiri medicale la domiciliu",
      "lat": 44.4531849,
      "lng": 26.1152856
    },
    {
      "address": "BUCURESTI, Sos. Oltenitei nr.105, bl. Turn et.5, cam.502, Sector 4",
      "name": "SC TERRA ACTIV PROD MED SRL",
      "phone": "021/6341242 ; 0748222201",
      "specialty": "Ingrijiri medicale la domiciliu",
      "lat": 44.392196,
      "lng": 26.125149
    },
    {
      "address": "BUCUREST, Calea Victoriei nr.222, bl.D6, Sector 1",
      "name": "SC MEDLIFE SA",
      "phone": "219646",
      "specialty": "Ingrijiri medicale la domiciliu",
      "lat": 44.450975,
      "lng": 26.087265
    },
    {
      "address": "BUCURESTI,Str. Prelungirea Ghencea nr. 94-100.bl.A3, ap.3027, sector 6",
      "name": "SC PERFECT CARE SRL",
      "phone": "0767983237; 0727767646",
      "specialty": "Ingrijiri medicale la domiciliu",
      "lat": 44.4112654,
      "lng": 26.0065891
    },
    {
      "address": "BUCURESTI,Str.Horatiu, nr.20, corp B, et.1, sector1",
      "name": "SC MEDLINE CENTER SRL",
      "phone": "0213136283, 0213136250",
      "specialty": "Ingrijiri medicale la domiciliu",
      "lat": 44.4434252,
      "lng": 26.0820412
    },
    {
      "address": "BUCURESTI, Str. Sachelarie Visarion nr.63, bl-, ap-, Sector 3",
      "name": "SC ALICIA MEDICAL EXPERT SRL",
      "phone": "213103350",
      "specialty": "Ingrijiri medicale la domiciliu",
      "lat": 44.4431075,
      "lng": 26.1388167
    },
    {
      "address": "BUCURESTI,Str. Fetitelor nr.26, Sector3",
      "name": "FUNDATIA HOSPICE CASA SPERANTEI",
      "phone": "372706210",
      "specialty": "Ingrijiri la domiciliu",
      "lat": 44.431931,
      "lng": 26.119214
    },
    {
      "address": "BUCURESTI, Bd. Regina Maria nr.21 et.1,Bl.-, ap.-, sector 4",
      "name": "FUNDATIA CRUCEA ALB GALBENA DIN ROMANIA",
      "phone": "213151256",
      "specialty": "Ingrijiri la domiciliu",
      "lat": 44.422837,
      "lng": 26.093124
    }
  ]