{
    "list": [
        {
            "address": "Paşcani, str. 1Decembrie 1918, nr.59",
            "contractNo": "1646",
            "email": "lucrot@yahoo.co.uk",
            "medicName": "ROTARU LUCIAN",
            "phone": "0745888184",
            "supplierName": "CABINETE MEDICALE ASOCIATE - DR. IULIA SI LUCIAN ROTARU",
            "lat": 47.2411237,
            "lng": 26.7233832
        },
        {
            "address": "Paşcani, str. 1Decembrie 1918, nr.59",
            "contractNo": "_",
            "email": "_",
            "medicName": "ROTARU IULIA",
            "phone": "0745888184",
            "supplierName": "CABINETE MEDICALE ASOCIATE - DR. IULIA SI LUCIAN ROTARU",
            "lat": 47.2411237,
            "lng": 26.7233832
        },
        {
            "address": "Holboca, str. Principală, nr.69",
            "contractNo": "3028",
            "email": "ipicioreanu@gmail.com",
            "medicName": "PICIOREANU IULIANA",
            "phone": "0745125551",
            "supplierName": "CENTRUL DE MEDICINA DE FAMILE HOLMED - SCM",
            "lat": 47.1579763,
            "lng": 27.6889953
        },
        {
            "address": "Holboca, str. Principală, nr.69",
            "contractNo": "_",
            "email": "_",
            "medicName": "MUNTEANU LOREDANA",
            "phone": "_",
            "supplierName": "CENTRUL DE MEDICINA DE FAMILE HOLMED - SCM",
            "lat": 47.1579763,
            "lng": 27.6889953
        },
        {
            "address": "Mironeasa, _",
            "contractNo": "3030",
            "email": "mironoana@yahoo.com",
            "medicName": "MIRON OANA LUCIA",
            "phone": "0769256629",
            "supplierName": "CENTRUL DE MEDICINA DE FAMILE MIRONEASA - SCM",
            "lat": 46.9684636,
            "lng": 27.4329017
        },
        {
            "address": "Mironeasa, _",
            "contractNo": "_",
            "email": "_",
            "medicName": "VOLOC-POPEL CĂTĂLIN-MARCEL",
            "phone": "_",
            "supplierName": "CENTRUL DE MEDICINA DE FAMILE MIRONEASA - SCM",
            "lat": 46.9684636,
            "lng": 27.4329017
        },
        {
            "address": "Mironeasa, _",
            "contractNo": "_",
            "email": "_",
            "medicName": "DOBRIŢĂ GEANINA CRISTINELA",
            "phone": "_",
            "supplierName": "CENTRUL DE MEDICINA DE FAMILE MIRONEASA - SCM",
            "lat": 46.9684636,
            "lng": 27.4329017
        },
        {
            "address": "Deleni, str. Principală",
            "contractNo": "2895",
            "email": "popescu_danastefana@yahoo.com",
            "medicName": "POPESCU DANA-ŞTEFANA",
            "phone": "0745610711",
            "supplierName": "CENTRUL DE MEDICINA DE FAMILIE DELENI - SCM",
            "lat": 44.4267674,
            "lng": 26.1025384
        },
        {
            "address": "Deleni, str. Principală",
            "contractNo": "_",
            "email": "_",
            "medicName": "CHELE MIHAELA",
            "phone": "_",
            "supplierName": "CENTRUL DE MEDICINA DE FAMILIE DELENI - SCM",
            "lat": 44.4267674,
            "lng": 26.1025384
        },
        {
            "address": "Iaşi, str. Muşatini,  nr.59",
            "contractNo": "3663",
            "email": "simonaelenaadam@gmail.com",
            "medicName": "ADAM SIMONA-ELENA",
            "phone": "0744343564",
            "supplierName": "CMI DR. ADAM SIMONA-ELENA",
            "lat": 47.1626652,
            "lng": 27.5595284
        },
        {
            "address": "Leţcani, _",
            "contractNo": "2685",
            "email": "andreea.aghinitei@gmail.com",
            "medicName": "AGHINIŢEI ANDREEA",
            "phone": "0741573214",
            "supplierName": "CMI DR. AGHINITEI ANDREEA",
            "lat": 47.1962413,
            "lng": 27.4051596
        },
        {
            "address": "Victoria, _",
            "contractNo": "739",
            "email": "irina.aghinitei@yahoo.com",
            "medicName": "AGHINIŢEI IRINA",
            "phone": "0744620163",
            "supplierName": "CMI DR. AGHINITEI IRINA",
            "lat": 44.4367935,
            "lng": 26.098072
        },
        {
            "address": "Iaşi, str. Mr.Popescu Ierimia, nr. 17",
            "contractNo": "3684",
            "email": "miha_albut@ymail.com",
            "medicName": "ALBUŢ MIHAELA-DANIELA",
            "phone": "0745651418",
            "supplierName": "CMI DR. ALBUT MIHAELA DANIELA",
            "lat": 47.1638445,
            "lng": 27.5950211
        },
        {
            "address": "Iaşi, B-dul .Primăverii,  nr.4",
            "contractNo": "3416",
            "email": "alexandruniculina@yahoo.com",
            "medicName": "ALEXANDRU NICULINA",
            "phone": "0745317575",
            "supplierName": "CMI DR. ALEXANDRU NICULINA",
            "lat": 47.1584549,
            "lng": 27.6014418
        },
        {
            "address": "Oţeleni, _",
            "contractNo": "924",
            "email": "alupoaeicarmen70@yahoo.com",
            "medicName": "ALUPOAEI CARMEN-FLORINA",
            "phone": "0766688244",
            "supplierName": "CMI DR. ALUPOAEI CARMEN FLORINA",
            "lat": 44.3947696,
            "lng": 26.0453455
        },
        {
            "address": "Schitu Duca , sat Poieni",
            "contractNo": "94",
            "email": "dr_amzalucia@yahoo.fr",
            "medicName": "AMZA DOINA-LUCIA",
            "phone": "0745500716",
            "supplierName": "CMI DR. AMZA DOINA LUCIA",
            "lat": 47.0463781,
            "lng": 27.7131895
        },
        {
            "address": "Popricani, _",
            "contractNo": "65",
            "email": "lacramioara_andreescu08@yahoo.com",
            "medicName": "ANDREESCU LĂCRĂMIOARA",
            "phone": "0752467405",
            "supplierName": "CMI DR. ANDREESCU LACRAMIOARA",
            "lat": 47.288462,
            "lng": 27.5120227
        },
        {
            "address": "Focuri, _",
            "contractNo": "3044",
            "email": "andreea_ce08@yahoo.com",
            "medicName": "ANDRIESCU ANDREEA-ELENA",
            "phone": "0742511236",
            "supplierName": "CMI DR. ANDRIESCU ANDREEA-ELENA",
            "lat": 47.34955470000001,
            "lng": 27.2086464
        },
        {
            "address": "Scobinţi, _",
            "contractNo": "13",
            "email": "medic_andronic@yahoo.co.uk",
            "medicName": "ANDRONIC CONSTANTIN",
            "phone": "0744533321",
            "supplierName": "CMI DR. ANDRONIC CONSTANTIN",
            "lat": 47.3922266,
            "lng": 26.9063662
        },
        {
            "address": "Iaşi, B-dul .Primăverii,  nr.4",
            "contractNo": "2818",
            "email": "svandronic@yahoo.com",
            "medicName": "ANDRONIC SVETLANA",
            "phone": "0754935666",
            "supplierName": "CMI DR. ANDRONIC SVETLANA",
            "lat": 47.1584549,
            "lng": 27.6014418
        },
        {
            "address": "Ungheni, sat Bosia",
            "contractNo": "475",
            "email": "dranghelcornelia@yahoo.com",
            "medicName": "ANGHEL CORNELIA",
            "phone": "0745539850",
            "supplierName": "CMI DR. ANGHEL CORNELIA",
            "lat": 47.2172981,
            "lng": 27.764453
        },
        {
            "address": "Popricani, sat Vânatori",
            "contractNo": "1441",
            "email": "anghel_elena85@yahoo.com",
            "medicName": "ANGHEL ELENA",
            "phone": "0722375306",
            "supplierName": "CMI DR. ANGHEL ELENA",
            "lat": 47.2429861,
            "lng": 27.5246483
        },
        {
            "address": "Popricani, sat Vânatori",
            "contractNo": "520",
            "email": "anghel.maria47@yahoo.com",
            "medicName": "ANGHEL MARIA",
            "phone": "0729837074",
            "supplierName": "CMI DR. ANGHEL MARIA",
            "lat": 47.2429861,
            "lng": 27.5246483
        },
        {
            "address": "Paşcani, str. Gării nr. 87, Bloc B28, Scara A, parter, Apartament 3",
            "contractNo": "762",
            "email": "vantioch@yahoo.com",
            "medicName": "ANTIOCH VERONICA",
            "phone": "0744507897",
            "supplierName": "CMI DR. ANTIOCH VERONICA",
            "lat": 47.2536555,
            "lng": 26.7251622
        },
        {
            "address": "Scânteia, _",
            "contractNo": "2834",
            "email": "livdanton@yahoo.com",
            "medicName": "ANTON LIVIU-DRAGOŞ",
            "phone": "0755153848",
            "supplierName": "CMI DR. ANTON LIVIU DRAGOS",
            "lat": 44.4809135,
            "lng": 26.0712498
        },
        {
            "address": "Stolniceni Prăjescu, _",
            "contractNo": "3414",
            "email": "anton_stefania84@yahoo.com",
            "medicName": "ANTON ŞTEFANIA",
            "phone": "0746828183",
            "supplierName": "CMI DR. ANTON STEFANIA",
            "lat": 47.1953378,
            "lng": 26.7490317
        },
        {
            "address": "Iaşi, str. Nicolina nr.79",
            "contractNo": "419",
            "email": "minodora.antonovici@gmail.com",
            "medicName": "ANTONOVICI MINODORA",
            "phone": "0741208254",
            "supplierName": "CMI DR. ANTONOVICI MINODORA",
            "lat": 47.1316592,
            "lng": 27.5714471
        },
        {
            "address": "Rediu, sat Horleşti",
            "contractNo": "2559",
            "email": "ancaseru@gmail.com",
            "medicName": "APÎNTEI ANCA-MIHAELA",
            "phone": "0766513311",
            "supplierName": "CMI DR. APINTEI MIHAELA",
            "lat": 47.2619876,
            "lng": 27.4564713
        },
        {
            "address": "Popricani, _",
            "contractNo": "100",
            "email": "daries777@yahoo.com",
            "medicName": "APOSTOL DANA",
            "phone": "0749205177",
            "supplierName": "CMI DR. APOSTOL DANA VITASANA",
            "lat": 47.288462,
            "lng": 27.5120227
        },
        {
            "address": "Iaşi, str. Vasile Lupu, nr. 87",
            "contractNo": "765",
            "email": "dapostol67@yahoo.com",
            "medicName": "APOSTOL DANIELA",
            "phone": "0745539803",
            "supplierName": "CMI DR. APOSTOL DANIELA",
            "lat": 47.160305,
            "lng": 27.615606
        },
        {
            "address": "Horleşti, _",
            "contractNo": "103",
            "email": "dr_apostolache_mihaela@yahoo.com",
            "medicName": "APOSTOLACHE MIHAELA-LILIANA",
            "phone": "0763289958",
            "supplierName": "CMI DR. APOSTOLACHE MIHAELA LILIANA",
            "lat": 47.109427,
            "lng": 27.3747873
        },
        {
            "address": "Ţibaneşti, _",
            "contractNo": "281",
            "email": "lilac2002ca@yahoo.ca",
            "medicName": "ARUXANDEI IRINA-LILIANA",
            "phone": "0745371787",
            "supplierName": "CMI DR. ARUXANDEI IRINA LILIANA",
            "lat": 46.90787419999999,
            "lng": 27.3380993
        },
        {
            "address": "Hârlau, str. Stejari, nr.2",
            "contractNo": "261",
            "email": "carmen_dr2007@yahoo.com",
            "medicName": "ATODIRESEI CARMEN ELENA",
            "phone": "0745603644",
            "supplierName": "CMI DR. ATODIRESEI CARMEN ELENA",
            "lat": 47.428981,
            "lng": 26.897557
        },
        {
            "address": "Şcheia, _",
            "contractNo": "243",
            "email": "cristina_80cos@yahoo.com",
            "medicName": "ATUDOREI PETRONELA",
            "phone": "0732801623",
            "supplierName": "CMI DR. ATUDOREI PETRONELA",
            "lat": 46.9299524,
            "lng": 27.5056301
        },
        {
            "address": "Voineşti, _",
            "contractNo": "1765",
            "email": "baciu_cristina_marlena@yahoo.com",
            "medicName": "BACIU CRISTINA-MARLENA",
            "phone": "0743809302",
            "supplierName": "CMI DR. BACIU CRISTINA MARLENA",
            "lat": 44.4364,
            "lng": 26.0346
        },
        {
            "address": "Iaşi, str. Ion Creanga, nr.73A",
            "contractNo": "521",
            "email": "badarau.livia.med@gmail.com",
            "medicName": "BĂDĂRĂU LIVIA",
            "phone": "0745232782",
            "supplierName": "CMI DR. BADARAU LIVIA",
            "lat": 47.1613359,
            "lng": 27.616034
        },
        {
            "address": "Tomeşti, _",
            "contractNo": "562",
            "email": "dr.badelitaelena@gmail.com",
            "medicName": "BADELIŢA ELENA-EUGENIA",
            "phone": "0741053235",
            "supplierName": "CMI DR. BADELITA ELENA EUGENIA",
            "lat": 44.3812121,
            "lng": 26.1310592
        },
        {
            "address": "Deleni, _",
            "contractNo": "128",
            "email": "balanadrianaro@yahoo.com",
            "medicName": "BALAN MIOARA-ADRIANA",
            "phone": "0745610727",
            "supplierName": "CMI DR. BALAN ADRIANA MIOARA",
            "lat": 44.45835,
            "lng": 26.121295
        },
        {
            "address": "Scânteia, _",
            "contractNo": "411",
            "email": "balan.maria54@yahoo.com",
            "medicName": "BALAN MARIA",
            "phone": "0745397262",
            "supplierName": "CMI DR. BALAN MARIA",
            "lat": 44.4809135,
            "lng": 26.0712498
        },
        {
            "address": "Erbiceni, _",
            "contractNo": "1888",
            "email": "drhouse63@yahoo.com",
            "medicName": "BALCAN ANIŞOARA",
            "phone": "0748429520",
            "supplierName": "CMI DR. BALCAN ANISOARA",
            "lat": 47.2533138,
            "lng": 27.2397654
        },
        {
            "address": "Iaşi, str. Nicolina 79, bl. 977C, p",
            "contractNo": "433",
            "email": "julietabaldigau@yahoo.com",
            "medicName": "BÂLDIGĂU MARIA-JULIETA",
            "phone": "0723548459",
            "supplierName": "CMI DR. BALDIGAU MARIA JULIETA",
            "lat": 47.1316592,
            "lng": 27.5714471
        },
        {
            "address": "Iaşi, str. Moara de Vânt, nr.43",
            "contractNo": "1161",
            "email": "diana_carlan2005@yahoo.com",
            "medicName": "BALOŞESCU-CÂRLAN VIORICA",
            "phone": "0745604933",
            "supplierName": "CMI DR. BALOSESCU CARLAN VIORICA",
            "lat": 47.1723776,
            "lng": 27.5990685
        },
        {
            "address": "Butea, _",
            "contractNo": "491",
            "email": "bcarmencristina@yahoo.com",
            "medicName": "BARARU CARMEN-CRISTINA",
            "phone": "0721235115",
            "supplierName": "CMI DR. BARARU CARMEN CRISTINA",
            "lat": 47.0698885,
            "lng": 26.9346864
        },
        {
            "address": "Iaşi, str. Păcurari, nr.6",
            "contractNo": "1027",
            "email": "lilianabarbacariu@gmail.com",
            "medicName": "BARBACARIU CARMEN-LILIANA",
            "phone": "0722583612",
            "supplierName": "CMI DR. BARBACARIU CARMEN LILIANA",
            "lat": 47.1705864,
            "lng": 27.5741059
        },
        {
            "address": "Cotnari, _",
            "contractNo": "832",
            "email": "cris_barbu@hotmail.com",
            "medicName": "BARBU CRISTINA-VASILICA",
            "phone": "0745622811",
            "supplierName": "CMI DR. BARBU CRISTINA VASILICA",
            "lat": 44.5090073,
            "lng": 26.0257999
        },
        {
            "address": "Ciohorani, _",
            "contractNo": "2444",
            "email": "dr_bejandaniela@yahoo.com",
            "medicName": "BEJAN DANIELA",
            "phone": "0763243577",
            "supplierName": "CMI DR. BEJAN DANIELA",
            "lat": 47.138495,
            "lng": 26.683203
        },
        {
            "address": "Miroslava, Aleea M.Kogălniceanu, nr.38",
            "contractNo": "3411",
            "email": "oxana_bejenaru@yahoo.com",
            "medicName": "BEJENARU OXANA",
            "phone": "0740041569",
            "supplierName": "CMI DR. BEJENARU OXANA",
            "lat": 47.1508916,
            "lng": 27.5231284
        },
        {
            "address": "Târgu Frumos, Petru Rareş nr.58, et. 2, cabinet 38",
            "contractNo": "3037",
            "email": "mcbenchea@yahoo.com",
            "medicName": "BENCHEA MARIA-CARMEN",
            "phone": "0742018181",
            "supplierName": "CMI DR. BENCHEA MARIA CARMEN",
            "lat": 47.211075,
            "lng": 27.016318
        },
        {
            "address": "Iaşi, B-dul .Primăverii, nr.19",
            "contractNo": "435",
            "email": "elenabercea@live.com",
            "medicName": "BERCEA ELENA",
            "phone": "0745883891",
            "supplierName": "CMI DR. BERCEA ELENA",
            "lat": 47.1584549,
            "lng": 27.6014418
        },
        {
            "address": "Victoria, _",
            "contractNo": "3004",
            "email": "gabrielaberheci@yahoo.com",
            "medicName": "BERHECI GABRIELA-SPERANŢA",
            "phone": "0759010905",
            "supplierName": "CMI DR. BERHECI GABRIELA - SPERANTA",
            "lat": 44.4367935,
            "lng": 26.098072
        },
        {
            "address": "Iaşi, str. Toma Cozma, nr.4",
            "contractNo": "1385",
            "email": "cori_beschea@yahoo.com",
            "medicName": "BEŞCHEA-CHIRIAC CORINA",
            "phone": "0744541413",
            "supplierName": "CMI DR. BESCHEA CHIRIAC CORINA",
            "lat": 47.17334049999999,
            "lng": 27.56465
        },
        {
            "address": "Plugari, sat Boroșoaia",
            "contractNo": "321",
            "email": "barleanu_lorelei@yahoo.com",
            "medicName": "BÎRLEANU NICOLETA LORELEI",
            "phone": "0742671146",
            "supplierName": "CMI DR. BIRLEANU NICOLETA LORELEI",
            "lat": 47.4602511,
            "lng": 27.0955942
        },
        {
            "address": "Iaşi, B-dul. Independenţei, nr.16, et. 3, cab. 10",
            "contractNo": "3050",
            "email": "silviu_blascu@yahoo.com",
            "medicName": "BLAŞCU VASILE-SILVIU",
            "phone": "0745263256",
            "supplierName": "CMI DR. BLASCU VASILE SILVIU",
            "lat": 47.1664939,
            "lng": 27.5873485
        },
        {
            "address": "Iaşi, str. A.Panu, nr.1",
            "contractNo": "378",
            "email": "larisabodescuamancei@yahoo.com",
            "medicName": "BODESCU-AMANCEI LARISA",
            "phone": "0726332474",
            "supplierName": "CMI DR. BODESCU AMANCEI LARISA",
            "lat": 47.16187499999999,
            "lng": 27.5911434
        },
        {
            "address": "Pârcovaci, _",
            "contractNo": "1181",
            "email": "andabodron@yahoo.com",
            "medicName": "BODRON MARIA-ANDA",
            "phone": "0740818241",
            "supplierName": "CMI DR. BODRON MARIA ANDA",
            "lat": 47.4337442,
            "lng": 26.8463063
        },
        {
            "address": "Fântânele, _",
            "contractNo": "1319",
            "email": "doctorquin20@yahoo.com",
            "medicName": "BORDEIANU DANIELA-IONELA",
            "phone": "0745528229",
            "supplierName": "CMI DR. BORDEIANU DANIELA IONELA",
            "lat": 46.421745,
            "lng": 24.7657281
        },
        {
            "address": "Şipote, str. Luca Arbore 56",
            "contractNo": "337",
            "email": "bostan_gabriela2000@yahoo.com",
            "medicName": "BOSTAN GABRIELA",
            "phone": "0766699919",
            "supplierName": "CMI DR. BOSTAN GABRIELA",
            "lat": 44.4267674,
            "lng": 26.1025384
        },
        {
            "address": "Iaşi, B-dul T.Vladimirescu, nr.31",
            "contractNo": "2",
            "email": "magdalenaceciliabotu@yahoo.com",
            "medicName": "BOŢU MAGDALENA-CECILIA",
            "phone": "0728958051",
            "supplierName": "CMI DR. BOTU MAGDALENA CECILIA",
            "lat": 47.1584549,
            "lng": 27.6014418
        },
        {
            "address": "Ţibaneşti, _",
            "contractNo": "1475",
            "email": "mioara_loredana97@yahoo.com",
            "medicName": "BUCUR MIOARA",
            "phone": "0745063096",
            "supplierName": "CMI DR. BUCUR MIOARA",
            "lat": 46.90787419999999,
            "lng": 27.3380993
        },
        {
            "address": "Ciurea, _",
            "contractNo": "275",
            "email": "buduivasilica@yahoo.com",
            "medicName": "BUDUI VASILICA",
            "phone": "0722959428",
            "supplierName": "CMI DR. BUDUI VASILICA",
            "lat": 44.4374522,
            "lng": 26.1405087
        },
        {
            "address": "Paşcani, str. Gării, nr.12",
            "contractNo": "749",
            "email": "buiuc.doina@yahoo.com",
            "medicName": "BUIUC DOINA-ECATERINA",
            "phone": "0761148567",
            "supplierName": "CMI DR. BUIUC DOINA ECATERINA",
            "lat": 47.2480629,
            "lng": 26.7290824
        },
        {
            "address": "Iaşi, str. Vasile Lupu,nr.34",
            "contractNo": "286",
            "email": "eugeniaburdea@yahoo.com",
            "medicName": "BURDEA EUGENIA",
            "phone": "0740161227",
            "supplierName": "CMI DR. BURDEA EUGENIA",
            "lat": 47.157189,
            "lng": 27.622084
        },
        {
            "address": "Dolheşti, _",
            "contractNo": "115",
            "email": "burghelea_svetlana@yahoo.com",
            "medicName": "BURGHELEA SVETLANA",
            "phone": "0769961871",
            "supplierName": "CMI DR. BURGHELEA SVETLANA",
            "lat": 46.8748237,
            "lng": 27.8962096
        },
        {
            "address": "Iaşi, str. Hatman Şendrea,nr.2",
            "contractNo": "293",
            "email": "corneliabutureanu@yahoo.com",
            "medicName": "BUŢUREANU ELENA-CORNELIA",
            "phone": "0723175118",
            "supplierName": "CMI DR. BUTUREANU ELENA CORNELIA",
            "lat": 47.1518185,
            "lng": 27.5714933
        },
        {
            "address": "Iaşi, str. Ion Creanga, nr.73A",
            "contractNo": "1749",
            "email": "adidcalarasu@yahoo.com",
            "medicName": "CĂLĂRAŞU ADRIAN-CEZAR",
            "phone": "0745147023",
            "supplierName": "CMI DR. CALARASU ADRIAN CEZAR",
            "lat": 47.1613359,
            "lng": 27.616034
        },
        {
            "address": "Cotnari, _",
            "contractNo": "833",
            "email": "catalinacalcan@yahoo.com",
            "medicName": "CALCAN ELENA-CĂTĂLINA",
            "phone": "0745574159",
            "supplierName": "CMI DR. CALCAN ELENA CATALINA",
            "lat": 44.5090073,
            "lng": 26.0257999
        },
        {
            "address": "Iaşi, str. Ion Creanga, nr.73A",
            "contractNo": "322",
            "email": "drcarmencalistru@gmail.com",
            "medicName": "CALISTRU CARMEN AURELIA",
            "phone": "0744915107",
            "supplierName": "CMI DR. CALISTRU CARMEN AURELIA",
            "lat": 47.1613359,
            "lng": 27.616034
        },
        {
            "address": "Iaşi, b-dul Nicolae Iorga, nr.39A",
            "contractNo": "3054",
            "email": "adicapsa@yahoo.com",
            "medicName": "CAPŞA ADRIANA",
            "phone": "0744378488",
            "supplierName": "CMI DR. CAPSA ADRIANA",
            "lat": 47.1493839,
            "lng": 27.5792637
        },
        {
            "address": "Iaşi, Şos.Nicolina, nr.79",
            "contractNo": "110",
            "email": "danacatarau@yahoo.com",
            "medicName": "CĂTĂRĂU DANA CRISTINA",
            "phone": "0745099252",
            "supplierName": "CMI DR. CATARAU DANA CRISTINA",
            "lat": 47.1316592,
            "lng": 27.5714471
        },
        {
            "address": "Brăeşti, _",
            "contractNo": "1777",
            "email": "dr.cazacudaniela@yahoo.com",
            "medicName": "CAZACU DANIELA",
            "phone": "0766888711",
            "supplierName": "CMI DR. CAZACU DANIELA",
            "lat": 45.4310092,
            "lng": 26.5116502
        },
        {
            "address": "Târgu Frumos, str. Petru Rareş, nr.58, et. 2, cabinet 39",
            "contractNo": "44",
            "email": "chifu.pdan@gmail.com",
            "medicName": "CHIFU PETRE DAN",
            "phone": "0744614660",
            "supplierName": "CMI DR. CHIFU PETRE DAN",
            "lat": 47.211075,
            "lng": 27.016318
        },
        {
            "address": "Dumeşti, _",
            "contractNo": "246",
            "email": "ticu55@yahoo.com",
            "medicName": "CHIRIAC RODICA",
            "phone": "0744640156",
            "supplierName": "CMI DR. CHIRIAC RODICA",
            "lat": 47.1744284,
            "lng": 27.3418761
        },
        {
            "address": "Iaşi, Pasaj Banu, nr.12 corp.C5",
            "contractNo": "1801",
            "email": "roxana_chiruta@yahoo.com",
            "medicName": "CHIRUŢĂ ROXANA",
            "phone": "0724131655",
            "supplierName": "CMI DR. CHIRUTA ROXANA",
            "lat": 47.1678016,
            "lng": 27.5775912
        },
        {
            "address": "Ruginoasa, str. Unirii, nr.27",
            "contractNo": "3427",
            "email": "ad_serban@yahoo.com",
            "medicName": "CHIŢANU ADRIANA",
            "phone": "0740829451",
            "supplierName": "CMI DR. CHITANU ADRIANA",
            "lat": 47.2412016,
            "lng": 26.8378404
        },
        {
            "address": "Todireşti, _",
            "contractNo": "2460",
            "email": "ciobanuanamf@yahoo.com",
            "medicName": "CIOBANU ANA",
            "phone": "0763104547",
            "supplierName": "CMI DR. CIOBANU ANA",
            "lat": 47.3252015,
            "lng": 26.8382094
        },
        {
            "address": "Ţibana, _",
            "contractNo": "35",
            "email": "dr_cameliaciobanu@yahoo.com",
            "medicName": "CIOBANU CAMELIA",
            "phone": "0722224555",
            "supplierName": "CMI DR. CIOBANU CAMELIA",
            "lat": 44.4475828,
            "lng": 26.1167458
        },
        {
            "address": "Sireţel, _",
            "contractNo": "1531",
            "email": "vioricamusa22@yahoo.com",
            "medicName": "CIOBANU ELENA-VIORICA",
            "phone": "0742375057",
            "supplierName": "CMI DR. CIOBANU ELENA VIORICA",
            "lat": 47.3861278,
            "lng": 26.7214807
        },
        {
            "address": "Tomeşti, _",
            "contractNo": "570",
            "email": "dana_ciocoi@yahoo.com",
            "medicName": "CIOCOI DANA DANIELA",
            "phone": "0746076128",
            "supplierName": "CMI DR. CIOCOI DANA DANIELA",
            "lat": 44.3812121,
            "lng": 26.1310592
        },
        {
            "address": "Iaşi, b-dul N.Iorga, nr.39 A",
            "contractNo": "396",
            "email": "mariana.ciomaga@yahoo.com",
            "medicName": "CIOMAGA MARIANA",
            "phone": "0722615842",
            "supplierName": "CMI DR. CIOMAGA MARIANA",
            "lat": 47.1493839,
            "lng": 27.5792637
        },
        {
            "address": "Iaşi, B-dul .Primăverii, nr.13, bl. D1, sc. B, ap. 1",
            "contractNo": "920",
            "email": "elitmedis@yahoo.com",
            "medicName": "CIONGRADI MIHAELA-CODRUŢA",
            "phone": "0744707898",
            "supplierName": "CMI DR. CIONGRADI MIHAELA CODRUTA - ELITMED B",
            "lat": 47.150018,
            "lng": 27.59504
        },
        {
            "address": "Paşcani, str. Izvoarelor, nr.9",
            "contractNo": "747",
            "email": "mciopraga2000@yahoo.com",
            "medicName": "CIOPRAGA MARIA",
            "phone": "0722633946",
            "supplierName": "CMI DR. CIOPRAGA MARIA",
            "lat": 47.25457309999999,
            "lng": 26.7226497
        },
        {
            "address": "Târgu Frumos, str. Petru Rareş, nr.58",
            "contractNo": "102",
            "email": "clincmaria@yahoo.com",
            "medicName": "CLINC MARIA",
            "phone": "0723684891",
            "supplierName": "CMI DR. CLINC MARIA",
            "lat": 47.211075,
            "lng": 27.016318
        },
        {
            "address": "Iaşi, Şos.Moara de Foc, nr.1",
            "contractNo": "101",
            "email": "coceacornelia@yahoo.com",
            "medicName": "COCEA CORNELIA",
            "phone": "0723934216",
            "supplierName": "CMI DR. COCEA CORNELIA",
            "lat": 47.1739566,
            "lng": 27.5518178
        },
        {
            "address": "Iaşi, B-dul.T.Vladimirescu, nr.36",
            "contractNo": "651",
            "email": "cristina.codrescu@gmail.com",
            "medicName": "CODRESCU CRISTINA-SIMONA",
            "phone": "0740547318",
            "supplierName": "CMI DR. CODRESCU CRISTINA SIMONA-PRO SANA",
            "lat": 47.1584549,
            "lng": 27.6014418
        },
        {
            "address": "Ungheni, sat Mânzăteşti",
            "contractNo": "2418",
            "email": "mirelacog@gmail.com",
            "medicName": "COGĂLNICEANU MIRELA",
            "phone": "0762627035",
            "supplierName": "CMI DR. COGALNICEANU MIRELA",
            "lat": 47.1889626,
            "lng": 27.7216329
        },
        {
            "address": "Hârlău, str. Stejari, nr.2",
            "contractNo": "121",
            "email": "gabi1cojocariu@yahoo.com",
            "medicName": "COJOCARIU GABRIELA-LUMINIŢA",
            "phone": "0740048298",
            "supplierName": "CMI DR. COJOCARIU GABRIELA",
            "lat": 47.428981,
            "lng": 26.897557
        },
        {
            "address": "Iaşi, str. Libertăţii, nr.34",
            "contractNo": "2417",
            "email": "mhcjcr@yahoo.com",
            "medicName": "COJOCARIU MIHAELA",
            "phone": "0751366903",
            "supplierName": "CMI DR. COJOCARIU MIHAELA",
            "lat": 47.138709,
            "lng": 27.584518
        },
        {
            "address": "Iaşi, str. Vitejilor, nr.17",
            "contractNo": "325",
            "email": "acoltafelicia@yahoo.com",
            "medicName": "COLŢA ADRIANA-FELICIA",
            "phone": "0744666944",
            "supplierName": "CMI DR. COLTA ADRIANA FELICIA",
            "lat": 47.1584549,
            "lng": 27.6014418
        },
        {
            "address": "Grajduri, _",
            "contractNo": "712",
            "email": "comanfelicialucia@yahoo.com",
            "medicName": "COMAN FELICIA-LUCIA",
            "phone": "0746302622",
            "supplierName": "CMI DR. COMAN FELICIA LUCIA",
            "lat": 46.9717309,
            "lng": 27.5364775
        },
        {
            "address": "Hârlău, str. Stejari, nr.2",
            "contractNo": "255",
            "email": "comanoana68@yahoo.com",
            "medicName": "COMAN OANA BRISTENA",
            "phone": "0744613064",
            "supplierName": "CMI DR. COMAN OANA BRISTENA",
            "lat": 47.428981,
            "lng": 26.897557
        },
        {
            "address": "Iaşi, str. Muşatini, nr.59",
            "contractNo": "1477",
            "email": "aurel.condrea@gmail.com",
            "medicName": "CONDREA AUREL",
            "phone": "0723159559",
            "supplierName": "CMI DR. CONDREA AUREL",
            "lat": 47.1626652,
            "lng": 27.5595284
        },
        {
            "address": "Târgu Frumos, str. Petru Rareş, nr.58",
            "contractNo": "268",
            "email": "condreairina@yahoo.com",
            "medicName": "CONDREA IRINA-CLAUDIA",
            "phone": "0744542704",
            "supplierName": "CMI DR. CONDREA IRINA CLAUDIA",
            "lat": 47.211075,
            "lng": 27.016318
        },
        {
            "address": "Iaşi, str. Muşatini, nr.59",
            "contractNo": "646",
            "email": "drcondreavaleria@yahoo.com",
            "medicName": "CONDREA VALERIA",
            "phone": "0745350369",
            "supplierName": "CMI DR. CONDREA VALERIA",
            "lat": 47.1626652,
            "lng": 27.5595284
        },
        {
            "address": "Iaşi, str. Muşatini, nr.59",
            "contractNo": "647",
            "email": "constantinelenagabriela@yahoo.com",
            "medicName": "CONSTANTIN ELENA-GABRIELA",
            "phone": "0740009669",
            "supplierName": "CMI DR. CONSTANTIN ELENA GABRIELA",
            "lat": 47.1626652,
            "lng": 27.5595284
        },
        {
            "address": "Târgu Frumos, str. Petru Rares, nr.58",
            "contractNo": "97",
            "email": "fanicactn@yahoo.com",
            "medicName": "CONSTANTIN FĂNICA",
            "phone": "0743547777",
            "supplierName": "CMI DR. CONSTANTIN FANICA",
            "lat": 47.211075,
            "lng": 27.016318
        },
        {
            "address": "Iaşi, str. Ion Creanga, nr.73A",
            "contractNo": "1486",
            "email": "iuliana.constantiniu@gmail.com",
            "medicName": "CONSTANTINIU IULIANA-MONIA",
            "phone": "0721246898",
            "supplierName": "CMI DR. CONSTANTINIU MONIA IULIANA",
            "lat": 47.1613359,
            "lng": 27.616034
        },
        {
            "address": "Cotnari, _",
            "contractNo": "700",
            "email": "chiraiasi@yahoo.com",
            "medicName": "COSTANDACHE CRISTINA-MIHAELA",
            "phone": "0745594368",
            "supplierName": "CMI DR. COSTANDACHE CRISTINA MIHAELA",
            "lat": 44.5090073,
            "lng": 26.0257999
        },
        {
            "address": "Ţiganaşi, _",
            "contractNo": "265",
            "email": "costea.liliana@yahoo.com",
            "medicName": "COSTEA LILIANA",
            "phone": "0723032264",
            "supplierName": "CMI DR. COSTEA LILIANA",
            "lat": 47.3300559,
            "lng": 27.4737619
        },
        {
            "address": "Drăguşeni, _",
            "contractNo": "2576",
            "email": "anca_gabicostin@yahoo.com",
            "medicName": "COSTIN ANCA",
            "phone": "0745389797",
            "supplierName": "CMI DR. COSTIN ANCA",
            "lat": 44.4267674,
            "lng": 26.1025384
        },
        {
            "address": "Iaşi, str. Sălciilor, nr.14",
            "contractNo": "775",
            "email": "danielacostoaea@yahoo.com",
            "medicName": "COSTOAEA DANIELA",
            "phone": "0744514433",
            "supplierName": "CMI DR. COSTOAEA DANIELA",
            "lat": 47.14375,
            "lng": 27.5770399
        },
        {
            "address": "Comarna, _",
            "contractNo": "87",
            "email": "culcotea@yahoo.com",
            "medicName": "COTEA CULIŢĂ",
            "phone": "0745637259",
            "supplierName": "CMI DR. COTEA CULITA",
            "lat": 47.0678683,
            "lng": 27.7766346
        },
        {
            "address": "Bârnova, str. Grigore Ghica Vodă al II-lea, nr.8D",
            "contractNo": "441",
            "email": "covalidi@yahoo.com",
            "medicName": "COVALIU LIDIA-CAMELIA",
            "phone": "0745250986",
            "supplierName": "CMI DR. COVALIU LIDIA CAMELIA",
            "lat": 47.0642542,
            "lng": 27.6398227
        },
        {
            "address": "IASI, str. Vasile Lupu 70-74",
            "contractNo": "3543",
            "email": "cmi.dr.mihaelacozma@gmail.com",
            "medicName": "COZMA MIHAELA",
            "phone": "0742118889",
            "supplierName": "CMI DR. COZMA MIHAELA",
            "lat": 47.159751,
            "lng": 27.608922
        },
        {
            "address": "Schitu Duca Satu Nou, Satu Nou",
            "contractNo": "397",
            "email": "elena.cracana@yahoo.com",
            "medicName": "CRĂCANĂ ELENA",
            "phone": "0723338230",
            "supplierName": "CMI DR. CRACANA ELENA",
            "lat": 46.9624742,
            "lng": 27.8101029
        },
        {
            "address": "Mogoşeşti, _",
            "contractNo": "3424",
            "email": "carmen_pce@yahoo.com",
            "medicName": "CRĂCIUN CARMEN-ELENA",
            "phone": "0746023829",
            "supplierName": "CMI DR. CRACIUN CARMEN ELENA",
            "lat": 44.2400359,
            "lng": 26.1077065
        },
        {
            "address": "Iaşi, str. Oastei, nr.2",
            "contractNo": "366",
            "email": "crauciucioana@yahoo.com",
            "medicName": "CRAUCIUC IOANA-RAMONA",
            "phone": "0723273868",
            "supplierName": "CMI DR. CRAUCIUC IOANA RAMONA",
            "lat": 47.1584549,
            "lng": 27.6014418
        },
        {
            "address": "Podu Iloaei, Şos. Naţională, nr.128",
            "contractNo": "150",
            "email": "iris.taur@gmail.com",
            "medicName": "CRAUS IRINA",
            "phone": "0742024116",
            "supplierName": "CMI DR. CRAUS IRINA",
            "lat": 47.2109327,
            "lng": 27.2664649
        },
        {
            "address": "Iaşi, str. Grădinari, nr.19",
            "contractNo": "4",
            "email": "terezacraus@yahoo.com",
            "medicName": "CRAUS MIHAELA-TEREZA",
            "phone": "0232279458",
            "supplierName": "CMI DR. CRAUS MIHAELA TEREZA",
            "lat": 47.1526307,
            "lng": 27.6199783
        },
        {
            "address": "Iaşi, str. str. Vitejilor, nr.15",
            "contractNo": "375",
            "email": "dr.creanga_dana2011@yahoo.com",
            "medicName": "CREANGĂ NINELA DANA",
            "phone": "0743163962",
            "supplierName": "CMI DR. CREANGA NINELA DANA",
            "lat": 47.1584549,
            "lng": 27.6014418
        },
        {
            "address": "Târgu Frumos, str. Petru Rareş, nr.58",
            "contractNo": "392",
            "email": "creangaveronica@yahoo.com",
            "medicName": "CREANGĂ VERONICA",
            "phone": "0720536242",
            "supplierName": "CMI DR. CREANGA VERONICA",
            "lat": 47.211075,
            "lng": 27.016318
        },
        {
            "address": "Iaşi, str. Milcov, nr.26, bl. 1204, sc. C, ap. 1",
            "contractNo": "768",
            "email": "danacretu2014@yahoo.ro",
            "medicName": "CREŢU DANIELA",
            "phone": "0745366447",
            "supplierName": "CMI DR. CRETU DANIELA",
            "lat": 47.158482,
            "lng": 27.571425
        },
        {
            "address": "Gropniţa, _",
            "contractNo": "3018",
            "email": "cretuvladinaelena@yahoo.ro",
            "medicName": "CREŢU ELENA-VLADINA",
            "phone": "0735779221",
            "supplierName": "CMI DR. CRETU ELENA VLADINA",
            "lat": 47.3581574,
            "lng": 27.2625151
        },
        {
            "address": "Iaşi, Şos.Nicolina, nr.79",
            "contractNo": "3313",
            "email": "georgeta_cretzu@yahoo.com",
            "medicName": "CREŢU GEORGETA",
            "phone": "0743219603",
            "supplierName": "CMI DR. CRETU GEORGETA",
            "lat": 47.1316592,
            "lng": 27.5714471
        },
        {
            "address": "Iaşi, Şos.Păcurari nr.125B",
            "contractNo": "779",
            "email": "ligia.cretu@yahoo.com",
            "medicName": "CREŢU LIGIA-AURA",
            "phone": "0744351094",
            "supplierName": "CMI DR. CRETU LIGIA AURA",
            "lat": 47.1725636,
            "lng": 27.5263075
        },
        {
            "address": "Iaşi, B-dul .Primăverii, nr.4",
            "contractNo": "3681",
            "email": "cristinacrivoi@yahoo.com",
            "medicName": "CRIVOI MIHAELA-CRISTINA",
            "phone": "0744341465",
            "supplierName": "CMI DR. CRIVOI CRISTINA MIHAELA",
            "lat": 47.1584549,
            "lng": 27.6014418
        },
        {
            "address": "Leţcani, _",
            "contractNo": "380",
            "email": "dr.elenacucu@gmail.com",
            "medicName": "CUCU ELENA",
            "phone": "0722539460",
            "supplierName": "CMI DR. CUCU ELENA",
            "lat": 47.1962413,
            "lng": 27.4051596
        },
        {
            "address": "Iaşi, B-dul .Primăverii, nr.4",
            "contractNo": "22",
            "email": "doina.curelaru@gmail.com",
            "medicName": "CURELARU DOINA-IULIANA",
            "phone": "0723289516",
            "supplierName": "CMI DR. CURELARU IULIANA DOINA",
            "lat": 47.1584549,
            "lng": 27.6014418
        },
        {
            "address": "Stolniceni Prăjescu, _",
            "contractNo": "129",
            "email": "lilianadaj@yahoo.com",
            "medicName": "DAJ LILIANA",
            "phone": "0724734669",
            "supplierName": "CMI DR. DAJ LILIANA",
            "lat": 47.1953378,
            "lng": 26.7490317
        },
        {
            "address": "Iaşi, str. Muşatini, nr.59",
            "contractNo": "662",
            "email": "liliana.daneliuc@yahoo.com",
            "medicName": "DANELIUC ARMAND",
            "phone": "0758023648",
            "supplierName": "CMI DR. DANELIUC ARMAND",
            "lat": 47.1626652,
            "lng": 27.5595284
        },
        {
            "address": "Iaşi, str. Muşatini, nr.59",
            "contractNo": "661",
            "email": "liliana.daneliuc@yahoo.com",
            "medicName": "DANELIUC LILIANA",
            "phone": "0745254458",
            "supplierName": "CMI DR. DANELIUC LILIANA",
            "lat": 47.1626652,
            "lng": 27.5595284
        },
        {
            "address": "Iaşi, str. Hatman Şendrea, nr.2",
            "contractNo": "438",
            "email": "daniceladriana@yahoo.com",
            "medicName": "DĂNICEL ADRIANA",
            "phone": "0723341827",
            "supplierName": "CMI DR. DANICEL ADRIANA",
            "lat": 47.1518185,
            "lng": 27.5714933
        },
        {
            "address": "Iaşi, B-dul .Primăverii, nr.19",
            "contractNo": "414",
            "email": "danifeld_doina@yahoo.com",
            "medicName": "DANIFELD DANA-DOINA",
            "phone": "0742082322",
            "supplierName": "CMI DR. DANIFELD DANA DOINA",
            "lat": 47.1584549,
            "lng": 27.6014418
        },
        {
            "address": "Tomeşti, str. Azaleei, bl.34",
            "contractNo": "1778",
            "email": "daria_lacramioara@yahoo.com",
            "medicName": "DARIA LĂCRĂMIOARA",
            "phone": "0745900830",
            "supplierName": "CMI DR. DARIA LACRAMIOARA",
            "lat": 47.1333885,
            "lng": 27.6908802
        },
        {
            "address": "Ciurbeşti, _",
            "contractNo": "2452",
            "email": "nelydarie@yahoo.com",
            "medicName": "DARIE MARIA-CRENELA",
            "phone": "0748996930",
            "supplierName": "CMI DR. DARIE MARIA CRENELA",
            "lat": 47.0967133,
            "lng": 27.5303728
        },
        {
            "address": "Bivolari, _",
            "contractNo": "498",
            "email": "manu_dokk@yahoo.com",
            "medicName": "DĂSCĂLESCU MANUELA",
            "phone": "0748365352",
            "supplierName": "CMI DR. DASCALESCU MANUELA",
            "lat": 47.518761,
            "lng": 27.448999
        },
        {
            "address": "Iaşi, Aleea M.Sadoveanu, nr.6",
            "contractNo": "1704",
            "email": "mary_dascalescu@yahoo.com",
            "medicName": "DĂSCĂLESCU MARILENA",
            "phone": "0741578496",
            "supplierName": "CMI DR. DASCALESCU MARILENA",
            "lat": 47.19189799999999,
            "lng": 27.5588049
        },
        {
            "address": "Podu Iloaei, str. Petru Rareş bl. 3A(10), sc. A, p",
            "contractNo": "114",
            "email": "angela_daschevici@yahoo.ro",
            "medicName": "DASCHEVICI ANGELA",
            "phone": "0745378278",
            "supplierName": "CMI DR. DASCHEVICI ANGELA",
            "lat": 47.2134365,
            "lng": 27.2721131
        },
        {
            "address": "Podu Iloaei, str. Petru Rareş bl. 3A(10), sc. A, p",
            "contractNo": "1096",
            "email": "dandaschevici@yahoo.com",
            "medicName": "DASCHEVICI DAN",
            "phone": "0740035918",
            "supplierName": "CMI DR. DASCHEVICI DAN",
            "lat": 47.2134365,
            "lng": 27.2721131
        },
        {
            "address": "Paşcani, Aleea 1 Dec.1918, nr.59",
            "contractNo": "3045",
            "email": "bratu_gina@yahoo.com",
            "medicName": "DAVID GINA-ANAMARIA",
            "phone": "0734222758",
            "supplierName": "CMI DR. DAVID GINA-ANAMARIA",
            "lat": 47.2411237,
            "lng": 26.7233832
        },
        {
            "address": "Voineşti, sat Schitu Stavnic",
            "contractNo": "3551",
            "email": "dediu.mina@yahoo.com",
            "medicName": "DEDIU LĂCRĂMIOARA-MARIA",
            "phone": "0764825133",
            "supplierName": "CMI DR. DEDIU LACRAMIOARA MARIA",
            "lat": 47.0566401,
            "lng": 27.4266153
        },
        {
            "address": "Ţibana, _",
            "contractNo": "1745",
            "email": "iridima@yahoo.com",
            "medicName": "DIMA IRINEL-CONSTANTIN",
            "phone": "0755095321",
            "supplierName": "CMI DR. DIMA IRINEL CONSTANTIN",
            "lat": 44.4475828,
            "lng": 26.1167458
        },
        {
            "address": "Golăeşti, _",
            "contractNo": "333",
            "email": "dimov_ionela@yahoo.com",
            "medicName": "DIMOV IONELA-NICOLA",
            "phone": "0766250873",
            "supplierName": "CMI DR. DIMOV IONELA NICOLA",
            "lat": 47.2406079,
            "lng": 27.7006808
        },
        {
            "address": "Iaşi, str. Hatman Şendrea, nr.2",
            "contractNo": "453",
            "email": "dobrucarmen@yahoo.com",
            "medicName": "DOBRU CARMEN-ELENA",
            "phone": "0747086978",
            "supplierName": "CMI DR. DOBRU CARMEN ELENA",
            "lat": 47.1518185,
            "lng": 27.5714933
        },
        {
            "address": "Paşcani, str. Moldovei, nr.3, blT6",
            "contractNo": "1239",
            "email": "liliana_dosa@yahoo.com",
            "medicName": "DOSA LILIANA",
            "phone": "0721234834",
            "supplierName": "CMI DR. DOSA LILIANA",
            "lat": 47.2411237,
            "lng": 26.7233832
        },
        {
            "address": "Prisăcani, _",
            "contractNo": "482",
            "email": "dragan.eugen@yahoo.com",
            "medicName": "DRĂGAN ELENA",
            "phone": "0743048094",
            "supplierName": "CMI DR. DRAGAN ELENA",
            "lat": 47.07573379999999,
            "lng": 27.8817279
        },
        {
            "address": "Iaşi, str. Ion Creanga,nr.73A",
            "contractNo": "458",
            "email": "danieladudau59@yahoo.ro",
            "medicName": "DUDĂU DANIELA COCA",
            "phone": "0746139957",
            "supplierName": "CMI DR. DUDAU DANIELA COCA",
            "lat": 47.1613359,
            "lng": 27.616034
        },
        {
            "address": "Tomeşti, _",
            "contractNo": "2344",
            "email": "dr.Nicoleta.dumitru@gmail.com",
            "medicName": "DUMITRU NICOLETA",
            "phone": "0745573592",
            "supplierName": "CMI DR. DUMITRU NICOLETA",
            "lat": 44.3812121,
            "lng": 26.1310592
        },
        {
            "address": "Tomeşti, _",
            "contractNo": "561",
            "email": "monica.dusa@yahoo.com",
            "medicName": "DUŞA MONICA",
            "phone": "0726382357",
            "supplierName": "CMI DR. DUSA MONICA",
            "lat": 44.3812121,
            "lng": 26.1310592
        },
        {
            "address": "Iaşi, str. Perju, nr.9",
            "contractNo": "309",
            "email": "cmi_icar@yahoo.com",
            "medicName": "FERMEŞANU TATIEANA",
            "phone": "0744308008",
            "supplierName": "CMI DR. FERMESANU TATIEANA - ICAR",
            "lat": 47.1616288,
            "lng": 27.5744577
        },
        {
            "address": "Iaşi, str. Hlincea, nr.31",
            "contractNo": "987",
            "email": "greencoal2003@yahoo.com",
            "medicName": "FLOREA IOANA-MIHAELA",
            "phone": "0744533830",
            "supplierName": "CMI DR. FLOREA IOANA MIHAELA",
            "lat": 47.128563,
            "lng": 27.57095
        },
        {
            "address": "Paşcani, str. Horia, nr.15",
            "contractNo": "2443",
            "email": "cris710821@yahoo.com",
            "medicName": "FRUNZĂ CRISTINA",
            "phone": "0749107571",
            "supplierName": "CMI DR. FRUNZA CRISTINA",
            "lat": 47.2473939,
            "lng": 26.7197439
        },
        {
            "address": "Prisăcani, _",
            "contractNo": "741",
            "email": "mirela.gafencu@yahoo.com",
            "medicName": "GAFENCU IRINA-MIRELA",
            "phone": "0723360895",
            "supplierName": "CMI DR. GAFENCU IRINA MIRELA",
            "lat": 47.07573379999999,
            "lng": 27.8817279
        },
        {
            "address": "Probota, _",
            "contractNo": "424",
            "email": "gafita_elena@yahoo.com",
            "medicName": "GAFIŢA ELENA",
            "phone": "0744761429",
            "supplierName": "CMI DR. GAFITA ELENA",
            "lat": 47.3789795,
            "lng": 27.4990165
        },
        {
            "address": "Iaşi, B-dul .Primăverii, nr.19",
            "contractNo": "637",
            "email": "corneliagalearschi@yahoo.com",
            "medicName": "GALEARSCHI CORNELIA",
            "phone": "0725563167",
            "supplierName": "CMI DR. GALEARSCHI CORNELIA",
            "lat": 47.1584549,
            "lng": 27.6014418
        },
        {
            "address": "Paşcani, b-dul Ştefan cel Mare, nr.21",
            "contractNo": "2626",
            "email": "dbazon@yahoo.com",
            "medicName": "GHIMPU DANA CLAUDIA",
            "phone": "0721852453",
            "supplierName": "CMI DR. GHIMPU DANA CLAUDIA",
            "lat": 47.2411237,
            "lng": 26.7233832
        },
        {
            "address": "Iaşi, str. Vitejilor, nr.17",
            "contractNo": "377",
            "email": "ghinita_cristina@yahoo.com",
            "medicName": "GHINIŢĂ CRISTINA-LILIANA",
            "phone": "0745634551",
            "supplierName": "CMI DR. GHINITA CRISTINA LILIANA",
            "lat": 47.1584549,
            "lng": 27.6014418
        },
        {
            "address": "Iaşi, B-dul .Primăverii, nr.19",
            "contractNo": "922",
            "email": "laurabirladeanu@yahoo.com",
            "medicName": "GIURGI LAURA-CORNELIA",
            "phone": "0722490240",
            "supplierName": "CMI DR. GIURGI LAURA CORNELIA",
            "lat": 47.1584549,
            "lng": 27.6014418
        },
        {
            "address": "Scobinţi, _",
            "contractNo": "883",
            "email": "gradinaruscatalin@yahoo.com",
            "medicName": "GRĂDINARU CĂTĂLIN-ŞTEFAN",
            "phone": "0745264551",
            "supplierName": "CMI DR. GRADINARU CATALIN STEFAN",
            "lat": 47.3922266,
            "lng": 26.9063662
        },
        {
            "address": "Scobinţi, _",
            "contractNo": "2110",
            "email": "crinagradinaru@yahoo.com",
            "medicName": "GRĂDINARU DANIELA",
            "phone": "0762629608",
            "supplierName": "CMI DR. GRADINARU DANIELA",
            "lat": 47.3922266,
            "lng": 26.9063662
        },
        {
            "address": "Iaşi, B-dul. N.Iorga, nr.39A",
            "contractNo": "1770",
            "email": "dralinagrecu@yahoo.com",
            "medicName": "GRECU ALINA-LILIANA",
            "phone": "0723215077",
            "supplierName": "CMI DR. GRECU ALINA LILIANA",
            "lat": 47.1493839,
            "lng": 27.5792637
        },
        {
            "address": "Iaşi, B-dul .Independenţei, nr.16",
            "contractNo": "3053",
            "email": "grecugiuly@gmail.com",
            "medicName": "GRECU IULIANA-MARILENA",
            "phone": "0743300304",
            "supplierName": "CMI DR. GRECU IULIANA-MARILENA",
            "lat": 47.1664939,
            "lng": 27.5873485
        },
        {
            "address": "Iaşi, B-dul T.Vladimirescu, nr.11",
            "contractNo": "1317",
            "email": "simona_g_iasi@yahoo.com",
            "medicName": "GRIGORAŞ SIMONA",
            "phone": "0745374186",
            "supplierName": "CMI DR. GRIGORAS SIMONA",
            "lat": 47.1584549,
            "lng": 27.6014418
        },
        {
            "address": "Ţiganaşi, _",
            "contractNo": "285",
            "email": "silviaadelagrinea@yahoo.com",
            "medicName": "GRINEA SILVIA-ADELA",
            "phone": "0740178678",
            "supplierName": "CMI DR. GRINEA SILVIA ADELA",
            "lat": 47.3300559,
            "lng": 27.4737619
        },
        {
            "address": "Iaşi, Mihail Kogalniceanu, nr.7",
            "contractNo": "3298",
            "email": "anyta_taga@yahoo.com",
            "medicName": "GROSU ANA-MARIA",
            "phone": "0746207731",
            "supplierName": "CMI DR. GROSU ANA MARIA",
            "lat": 47.1602303,
            "lng": 27.6031639
        },
        {
            "address": "Iaşi, str. Ion Creanga, nr.73A",
            "contractNo": "420",
            "email": "carmenhadadea@yahoo.com",
            "medicName": "HADADEA CARMEN IULIA",
            "phone": "0724797620",
            "supplierName": "CMI DR. HADADEA CARMEN",
            "lat": 47.1613359,
            "lng": 27.616034
        },
        {
            "address": "Andrieşeni, _",
            "contractNo": "106",
            "email": "carmenhamod@yahoo.com",
            "medicName": "HAMOD CARMEN-MARIA",
            "phone": "0745327419",
            "supplierName": "CMI DR. HAMOD CARMEN MARIA",
            "lat": 47.5279496,
            "lng": 27.2856958
        },
        {
            "address": "Comarna, sat Osoi",
            "contractNo": "1756",
            "email": "mustafahamod@yahoo.com",
            "medicName": "HAMOD MUSTAFA",
            "phone": "0745386626",
            "supplierName": "CMI DR. HAMOD MUSTAFA",
            "lat": 47.0943548,
            "lng": 27.7960251
        },
        {
            "address": "Bălţaţi, _",
            "contractNo": "611",
            "email": "lorenaiulia58@yahoo.com",
            "medicName": "HANDRACHE IULIA-LORENA",
            "phone": "0766377509",
            "supplierName": "CMI DR. HANDRACHE IULIA LORENA",
            "lat": 47.2235828,
            "lng": 27.1195278
        },
        {
            "address": "Dagaţa, _",
            "contractNo": "705",
            "email": "mirelahe2000@yahoo.com",
            "medicName": "HERESCU MIRELA",
            "phone": "0743180122",
            "supplierName": "CMI DR. HERESCU MIRELA",
            "lat": 44.4363822,
            "lng": 26.0209959
        },
        {
            "address": "Strunga, str. Principală",
            "contractNo": "42",
            "email": "c.m.i.hertairina@gmail.com",
            "medicName": "HERŢA IRINA-MIRELA",
            "phone": "0744761860",
            "supplierName": "CMI DR. HERTA IRINA MIRELA",
            "lat": 47.1650037,
            "lng": 26.9575245
        },
        {
            "address": "Gropniţa, _",
            "contractNo": "16",
            "email": "elena.horomnea@yahoo.com",
            "medicName": "HOROMNEA ELENA",
            "phone": "0745506733",
            "supplierName": "CMI DR. HOROMNEA ELENA",
            "lat": 47.3581574,
            "lng": 27.2625151
        },
        {
            "address": "Deleni, str. Principală",
            "contractNo": "452",
            "email": "brindusaiacob@yahoo.com",
            "medicName": "IACOB CAMELIA-BRÎNDUŞA",
            "phone": "0740544253",
            "supplierName": "CMI DR. IACOB CAMELIA BRANDUSA",
            "lat": 44.4267674,
            "lng": 26.1025384
        },
        {
            "address": "Tomeşti, _",
            "contractNo": "803",
            "email": "iacobelena@yahoo.com",
            "medicName": "IACOB MONA-LENUŢA",
            "phone": "0744277491",
            "supplierName": "CMI DR. IACOB MONA LENUTA",
            "lat": 44.3812121,
            "lng": 26.1310592
        },
        {
            "address": "Paşcani, str. Gâsteşti, nr.35A",
            "contractNo": "2447",
            "email": "iacomimarina@gmail.com",
            "medicName": "IACOMI MARINA",
            "phone": "0745231399",
            "supplierName": "CMI DR. IACOMI MARINA",
            "lat": 47.2492248,
            "lng": 26.6596489
        },
        {
            "address": "Iaşi, str. Dacia, nr.3",
            "contractNo": "269",
            "email": "gabi_iamandi@yahoo.com",
            "medicName": "IAMANDI GABRIELA",
            "phone": "0744208768",
            "supplierName": "CMI DR. IAMANDI GABRIELA-MEDIFAM",
            "lat": 47.1584549,
            "lng": 27.6014418
        },
        {
            "address": "Cozmeşti, _",
            "contractNo": "2785",
            "email": "viorica_ianau@yahoo.com",
            "medicName": "IANĂU VIORICA",
            "phone": "0746181991",
            "supplierName": "CMI DR. IANAU VIORICA",
            "lat": 46.8743422,
            "lng": 27.9921939
        },
        {
            "address": "Podu Iloaei, șos. Naţională, nr.128",
            "contractNo": "288",
            "email": "iancu.lacramioara@yahoo.com",
            "medicName": "IANCU LĂCRĂMIOARA-IOANA",
            "phone": "0767189483",
            "supplierName": "CMI DR. IANCU LACRAMIOARA IOANA",
            "lat": 44.4267674,
            "lng": 26.1025384
        },
        {
            "address": "Helesteni, _",
            "contractNo": "3428",
            "email": "magda_imi@yahoo.com",
            "medicName": "IBĂNESCU MAGDALENA",
            "phone": "0721274042",
            "supplierName": "CMI DR. IBANESCU MAGDALENA",
            "lat": 47.20056330000001,
            "lng": 26.8792392
        },
        {
            "address": "Iaşi, str. Vitejilor nr. 15-17, bl. A3-A4, corp A, p",
            "contractNo": "3704",
            "email": "lefmaria@yahoo.com",
            "medicName": "ILIESCU MARIA-MARGARETA",
            "phone": "0743017654",
            "supplierName": "CMI DR. ILIESCU MARIA-MARGARETA",
            "lat": 47.1682788,
            "lng": 27.5485771
        },
        {
            "address": "Vlădeni, str. Principală, Nr.67A",
            "contractNo": "3413",
            "email": "diana2roxana@yahoo.com",
            "medicName": "IOAN DIANA-ROXANA",
            "phone": "0740903583",
            "supplierName": "CMI DR. IOAN DIANA ROXANA",
            "lat": 44.6078766,
            "lng": 27.8472247
        },
        {
            "address": "Ciurea, sat Lunca Cetăţuiei",
            "contractNo": "316",
            "email": "icoca_53@yahoo.com",
            "medicName": "IONIŢĂ MARIA",
            "phone": "0744393803",
            "supplierName": "CMI DR. IONITA MARIA",
            "lat": 47.0982573,
            "lng": 27.559814
        },
        {
            "address": "Ciurea, sat Lunca Cetăţuiei, str. Parcului, nr.80",
            "contractNo": "2493",
            "email": "meluzin_iordache@yahoo.com",
            "medicName": "IORDACHE MIHAI-MELUZIN",
            "phone": "0751336865",
            "supplierName": "CMI DR. IORDACHE MIHAI MELUZIN",
            "lat": 47.0954235,
            "lng": 27.5625093
        },
        {
            "address": "Ciurea, _",
            "contractNo": "607",
            "email": "magda.iosub@gmail.com",
            "medicName": "IOSUB MAGDA",
            "phone": "0755299975",
            "supplierName": "CMI DR. IOSUB MAGDA",
            "lat": 44.4374522,
            "lng": 26.1405087
        },
        {
            "address": "Moşna, _",
            "contractNo": "1488",
            "email": "ioanaflorentina.iremciuc@yahoo.ro",
            "medicName": "IREMCIUC IOANA-FLORENTINA",
            "phone": "0745172519",
            "supplierName": "CMI DR. IREMCIUC IOANA FLORENTINA",
            "lat": 46.0917514,
            "lng": 24.3960846
        },
        {
            "address": "Iaşi, Şos.Nicolina, nr.79",
            "contractNo": "330",
            "email": "geovanina_isopel@yahoo.com",
            "medicName": "ISOPEL GEOVANINA",
            "phone": "0723579869",
            "supplierName": "CMI DR. ISOPEL GEOVANINA",
            "lat": 47.1316592,
            "lng": 27.5714471
        },
        {
            "address": "Şipote, _",
            "contractNo": "336",
            "email": "iurcu_ovy@yahoo.com",
            "medicName": "IURCU OVIDIU",
            "phone": "0741191767",
            "supplierName": "CMI DR. IURCU OVIDIU",
            "lat": 47.4705439,
            "lng": 27.215584
        },
        {
            "address": "Valea Seacă, _",
            "contractNo": "258",
            "email": "ivan.eugenia@yahoo.com",
            "medicName": "IVAN EUGENIA",
            "phone": "0723712689",
            "supplierName": "CMI DR. IVAN EUGENIA",
            "lat": 46.2436795,
            "lng": 27.0532864
        },
        {
            "address": "Voineşti, _",
            "contractNo": "1467",
            "email": "cmisimonaivascu@yahoo.com",
            "medicName": "IVAŞCU SIMONA",
            "phone": "0766582225",
            "supplierName": "CMI DR. IVASCU SIMONA",
            "lat": 44.4364,
            "lng": 26.0346
        },
        {
            "address": "Iaşi, b-dul Nicolae Iorga, nr.39A",
            "contractNo": "3055",
            "email": "jijieelena@gmail.com",
            "medicName": "JIJIE ELENA-LOREDANA",
            "phone": "0728021121",
            "supplierName": "CMI DR. JIJIE ELENA-LOREDANA",
            "lat": 47.1493839,
            "lng": 27.5792637
        },
        {
            "address": "Birnova, str. Grigore Ghica Vodă al II-lea, nr.8E",
            "contractNo": "2503",
            "email": "jurcaliliana@yahoo.com",
            "medicName": "JURCA LILIANA",
            "phone": "0753687670",
            "supplierName": "CMI DR. JURCA LILIANA",
            "lat": 48.4220396,
            "lng": 27.5281452
        },
        {
            "address": "Ciurea, _",
            "contractNo": "3408",
            "email": "andra_ioana2004@yahoo.com",
            "medicName": "LAZANU-MARTINESCU ANDRA-IOANA",
            "phone": "0745149421",
            "supplierName": "CMI DR. LAZANU MARTINESCU ANDRA IOANA",
            "lat": 44.4374522,
            "lng": 26.1405087
        },
        {
            "address": "Cepleniţa, sat Buhalniţa",
            "contractNo": "543",
            "email": "lazar_anca2000@yahoo.com",
            "medicName": "LAZĂR GEORGETA ANCA",
            "phone": "0745327396",
            "supplierName": "CMI DR. LAZAR GEORGETA ANCA",
            "lat": 47.3787054,
            "lng": 26.9181641
        },
        {
            "address": "Ţibana, _",
            "contractNo": "1386",
            "email": "lazartim56@yahoo.com",
            "medicName": "LAZĂR MIHAELA-LUMINIŢA",
            "phone": "0726232929",
            "supplierName": "CMI DR. LAZAR MIHAELA LUMINITA",
            "lat": 44.4475828,
            "lng": 26.1167458
        },
        {
            "address": "Cristeşti, _",
            "contractNo": "1649",
            "email": "leontedanyela@gmail.com",
            "medicName": "LEONTE DANIELA",
            "phone": "0745532282",
            "supplierName": "CMI DR. LEONTE DANIELA",
            "lat": 44.5050476,
            "lng": 26.011812
        },
        {
            "address": "Cristeşti, _",
            "contractNo": "1648",
            "email": "leonterc@gmail.com",
            "medicName": "LEONTE RADU-CRISTIAN",
            "phone": "0744691213",
            "supplierName": "CMI DR. LEONTE RADU CRISTIAN",
            "lat": 44.5050476,
            "lng": 26.011812
        },
        {
            "address": "Cepleniţa, _",
            "contractNo": "1590",
            "email": "danaleustean@yahoo.com",
            "medicName": "LEUŞTEAN DANIELA",
            "phone": "0745778832",
            "supplierName": "CMI DR. LEUSTEAN DANIELA",
            "lat": 47.3826863,
            "lng": 26.9648629
        },
        {
            "address": "Ruginoasa, _",
            "contractNo": "1483",
            "email": "eugenialica@yahoo.com",
            "medicName": "LICĂ EUGENIA",
            "phone": "0232734004",
            "supplierName": "CMI DR. LICA EUGENIA",
            "lat": 44.4146618,
            "lng": 26.1096228
        },
        {
            "address": "Sineşti, str. Principală",
            "contractNo": "2238",
            "email": "gianinalorent@yahoo.com",
            "medicName": "LORENŢ GIANINA",
            "phone": "0766838470",
            "supplierName": "CMI DR. LORENT GIANINA",
            "lat": 44.56502649999999,
            "lng": 26.3833243
        },
        {
            "address": "Al. I. Cuza, sat Șcheia",
            "contractNo": "3682",
            "email": "claus.lozneanu@gmail.com",
            "medicName": "LOZNEANU CLAUDIA-LAURA",
            "phone": "0728943104",
            "supplierName": "CMI DR. LOZNEANU CLAUDIA-LAURA",
            "lat": 47.6534523,
            "lng": 26.216632
        },
        {
            "address": "Tansa, _",
            "contractNo": "2011",
            "email": "ralstoica@yahoo.com",
            "medicName": "LOZNEANU RALUCA-ELENA",
            "phone": "0745528215",
            "supplierName": "CMI DR. LOZNEANU RALUCA ELENA",
            "lat": 46.912296,
            "lng": 27.2345403
        },
        {
            "address": "Iaşi, B-dul Nicolae Iorga, nr.39A",
            "contractNo": "472",
            "email": "beatrice.lucache@gmail.com",
            "medicName": "LUCACHE BEATRICE",
            "phone": "0232231287",
            "supplierName": "CMI DR. LUCACHE BEATRICE",
            "lat": 47.1493839,
            "lng": 27.5792637
        },
        {
            "address": "Miroslava, str. C-tin Langa, nr.48",
            "contractNo": "267",
            "email": "geta.lupascu54@yahoo.com",
            "medicName": "LUPAŞCU GEORGETA",
            "phone": "0741254272",
            "supplierName": "CMI DR. LUPASCU GEORGETA",
            "lat": 47.1491364,
            "lng": 27.5209305
        },
        {
            "address": "Mirceşti, _",
            "contractNo": "132",
            "email": "dr_dianalupu@yahoo.com",
            "medicName": "LUPU DIANA",
            "phone": "0722459760",
            "supplierName": "CMI DR. LUPU DIANA",
            "lat": 44.4703001,
            "lng": 26.0475232
        },
        {
            "address": "Mirceşti, _",
            "contractNo": "133",
            "email": "dr.lupudoru9@gmail.com",
            "medicName": "LUPU DORU-SIGFRID",
            "phone": "0731427722",
            "supplierName": "CMI DR. LUPU DORU-SIGFRID",
            "lat": 44.4703001,
            "lng": 26.0475232
        },
        {
            "address": "Voineşti, _",
            "contractNo": "263",
            "email": "cmilupuviorica@yahoo.com",
            "medicName": "LUPU VIORICA",
            "phone": "0728859505",
            "supplierName": "CMI DR. LUPU VIORICA",
            "lat": 44.4364,
            "lng": 26.0346
        },
        {
            "address": "Iaşi, str. G.Ibrăileanu, nr.3",
            "contractNo": "2891",
            "email": "carmen.lutuc@yahoo.com",
            "medicName": "LUŢUC CARMEN-AURELIA",
            "phone": "0722435583",
            "supplierName": "CMI DR. LUTUC CARMEN-AURELIA",
            "lat": 47.171039,
            "lng": 27.573239
        },
        {
            "address": "Dancu, str. Principală, bl B1, Tr.VI, P",
            "contractNo": "1439",
            "email": "maftei_camelia@yahoo.com",
            "medicName": "MAFTEI CAMELIA",
            "phone": "0751288859",
            "supplierName": "CMI DR. MAFTEI CAMELIA",
            "lat": 47.1561861,
            "lng": 27.6656228
        },
        {
            "address": "Iaşi, str. Ion Creanga, nr.73A",
            "contractNo": "481",
            "email": "stefaniamaftei@yahoo.com",
            "medicName": "MAFTEI ŞTEFANIA",
            "phone": "0723308812",
            "supplierName": "CMI DR. MAFTEI STEFANIA",
            "lat": 47.1613359,
            "lng": 27.616034
        },
        {
            "address": "Iaşi, b-dul Nicolae Iorga, nr.39A",
            "contractNo": "2738",
            "email": "roxana_magirescu@yahoo.com",
            "medicName": "MĂGIRESCU ROXANA",
            "phone": "0741065337",
            "supplierName": "CMI DR. MAGIRESCU ROXANA",
            "lat": 47.1493839,
            "lng": 27.5792637
        },
        {
            "address": "Iaşi, Şos.Nicolina, nr.79",
            "contractNo": "349",
            "email": "cornelia_dia@yahoo.com",
            "medicName": "MĂLĂCEA CORNELIA",
            "phone": "0745389902",
            "supplierName": "CMI DR. MALACEA CORNELIA",
            "lat": 47.1316592,
            "lng": 27.5714471
        },
        {
            "address": "Dancu, str. Dascălilor, nr.10, bl.H1, sc.C, ap.3A",
            "contractNo": "2814",
            "email": "andreea.malaimare@gmail.com",
            "medicName": "MALAIMARE ANDREEA-ELIZA",
            "phone": "0740834652",
            "supplierName": "CMI DR. MALAIMARE ANDREEA ELIZA",
            "lat": 47.1535768,
            "lng": 27.6594168
        },
        {
            "address": "Sineşti, _",
            "contractNo": "2450",
            "email": "florenta_manole@yahoo.com",
            "medicName": "MANOLE FLORENŢA",
            "phone": "0745389257",
            "supplierName": "CMI DR. MANOLE FLORENTA",
            "lat": 44.42614529999999,
            "lng": 26.2027754
        },
        {
            "address": "Iaşi, b-dul Socola, nr.9",
            "contractNo": "2416",
            "email": "mihaelafire19@yahoo.com",
            "medicName": "MANOLE MIHAELA",
            "phone": "0742007837",
            "supplierName": "CMI DR. MANOLE MIHAELA",
            "lat": 47.14954760000001,
            "lng": 27.5899247
        },
        {
            "address": "Iaşi, Şos.Nicolina, nr.79",
            "contractNo": "319",
            "email": "margineanugabriela@yahoo.com",
            "medicName": "MĂRGINEANU GABRIELA",
            "phone": "0747772827",
            "supplierName": "CMI DR. MARGINEANU GABRIELA",
            "lat": 47.1316592,
            "lng": 27.5714471
        },
        {
            "address": "Iaşi, Şos.Naţionala, nr.190",
            "contractNo": "1061",
            "email": "martinescugabriela@yahoo.com",
            "medicName": "MARTINESCU GABRIELA",
            "phone": "0744864276",
            "supplierName": "CMI DR. MARTINESCU GABRIELA",
            "lat": 47.152401,
            "lng": 27.583057
        },
        {
            "address": "Răducăneni, str. Principală",
            "contractNo": "1800",
            "email": "catalinamatei52@yahoo.com",
            "medicName": "MATEI CĂTĂLINA-NICOLETA",
            "phone": "0740017248",
            "supplierName": "CMI DR. MATEI CATALINA NICOLETA",
            "lat": 46.9559993,
            "lng": 27.9416661
        },
        {
            "address": "Iaşi, str. Ion Creanga, nr.73A",
            "contractNo": "3550",
            "email": "delia13259@gmail.com",
            "medicName": "MATEI DELIA-CLEONICA",
            "phone": "0730423950",
            "supplierName": "CMI DR. MATEI DELIA-CLEONICA",
            "lat": 47.1613359,
            "lng": 27.616034
        },
        {
            "address": "Mirosloveşti, _",
            "contractNo": "926",
            "email": "danielle_liviu@yahoo.com",
            "medicName": "MATEI MIHAELA-DANIELA",
            "phone": "0722247114",
            "supplierName": "CMI DR. MATEI MIHAELA DANIELA",
            "lat": 47.1527956,
            "lng": 26.6470021
        },
        {
            "address": "Costuleni, _",
            "contractNo": "2901",
            "email": "albert.dura@yahoo.com",
            "medicName": "MATRAN FLORENTINA",
            "phone": "0765094939",
            "supplierName": "CMI DR. MATRAN FLORENTINA",
            "lat": 44.4267674,
            "lng": 26.1025384
        },
        {
            "address": "Mădârjac, _",
            "contractNo": "1064",
            "email": "dianamaxim5@yahoo.com",
            "medicName": "MAXIM DIANA NICOLETA",
            "phone": "0721235758",
            "supplierName": "CMI DR. MAXIM DIANA",
            "lat": 47.0470532,
            "lng": 27.2654337
        },
        {
            "address": "Moţca, _",
            "contractNo": "1103",
            "email": "elena_mercas@yahoo.com",
            "medicName": "MERCAŞ-CHIRIAC ELENA",
            "phone": "0745510875",
            "supplierName": "CMI DR. MERCAS CHIRIAC ELENA",
            "lat": 47.2381755,
            "lng": 26.6041714
        },
        {
            "address": "Iaşi, str. Moara de Foc, nr.1",
            "contractNo": "305",
            "email": "rmiftode65@yahoo.co.uk",
            "medicName": "MIFTODE RĂZVAN-FLORENTIN",
            "phone": "0723553924",
            "supplierName": "CMI DR. MIFTODE RAZVAN FLORENTIN",
            "lat": 47.1739566,
            "lng": 27.5518178
        },
        {
            "address": "Tomeşti, Bl 44 parter",
            "contractNo": "623",
            "email": "dorina.mihalache58@gmail.com",
            "medicName": "MIHALACHE DORINA",
            "phone": "0740245089",
            "supplierName": "CMI DR. MIHALACHE DORINA",
            "lat": 44.3817432,
            "lng": 26.1320011
        },
        {
            "address": "Iaşi, B-dul .Primăverii, nr.19",
            "contractNo": "31",
            "email": "tamaramihalache@yahoo.com",
            "medicName": "MIHALACHE TAMARA-PETRONELA",
            "phone": "0752502487",
            "supplierName": "CMI DR. MIHALACHE TAMARA PETRONELA",
            "lat": 47.1584549,
            "lng": 27.6014418
        },
        {
            "address": "Iaşi, Şos.Bucium, nr.72A",
            "contractNo": "2693",
            "email": "dr.carmenmihaila@gmail.com",
            "medicName": "MIHĂILĂ CARMEN-MIHAELA",
            "phone": "0747300317",
            "supplierName": "CMI DR. MIHĂILĂ CARMEN-MIHAELA",
            "lat": 47.1211352,
            "lng": 27.6251743
        },
        {
            "address": "Iaşi, Bd.Nicolae Iorga,Nr.39A",
            "contractNo": "3412",
            "email": "oanamihoc@yahoo.com",
            "medicName": "MIHOC OANA-OCTAVIA",
            "phone": "0744605877",
            "supplierName": "CMI DR. MIHOC OANA OCTAVIA",
            "lat": 47.1493839,
            "lng": 27.5792637
        },
        {
            "address": "Popeşti, _",
            "contractNo": "668",
            "email": "kartulet@gmail.com",
            "medicName": "MÎŢĂ-BACIU ALEXANDRU",
            "phone": "0764977667",
            "supplierName": "CMI DR. MITA BACIU ALEXANDRU",
            "lat": 44.3799048,
            "lng": 26.1690624
        },
        {
            "address": "Iaşi, str. Ion Creanga, nr.73A",
            "contractNo": "347",
            "email": "mita3lidia@yahoo.com",
            "medicName": "MÎŢĂ LIDIA-MARGARETA",
            "phone": "0748388629",
            "supplierName": "CMI DR. MITA LIDIA MARGARETA",
            "lat": 47.1613359,
            "lng": 27.616034
        },
        {
            "address": "Târgu Frumos, str. Petru Rareş, nr.58",
            "contractNo": "3546",
            "email": "mioara080884@gmail.com",
            "medicName": "MITREA MIOARA-ELENA",
            "phone": "0753544315",
            "supplierName": "CMI DR. MITREA C. MIOARA-ELENA",
            "lat": 47.211075,
            "lng": 27.016318
        },
        {
            "address": "Bălţaţi, str. Principală, nr.92",
            "contractNo": "47",
            "email": "dr.mitreaelena@yahoo.com",
            "medicName": "MITREA ELENA",
            "phone": "0744533728",
            "supplierName": "CMI DR. MITREA ELENA",
            "lat": 47.2235828,
            "lng": 27.1195278
        },
        {
            "address": "Iaşi, str. Ion Creanga, nr.8",
            "contractNo": "579",
            "email": "c.costinescu@yahoo.com",
            "medicName": "MOIŞANU-COSTINESCU RODICA",
            "phone": "0753122199",
            "supplierName": "CMI DR. MOISANU COSTINESCU RODICA",
            "lat": 47.1750965,
            "lng": 27.5829727
        },
        {
            "address": "Bivolari, _",
            "contractNo": "533",
            "email": "moldovan_grigore_florin@yahoo.com",
            "medicName": "MOLDOVAN GRIGORE-FLORIN",
            "phone": "0740635101",
            "supplierName": "CMI DR. MOLDOVAN GRIGORE FLORIN",
            "lat": 47.518761,
            "lng": 27.448999
        },
        {
            "address": "Trifeşti, _",
            "contractNo": "3595",
            "email": "morarescu_ancuta@yahoo.com",
            "medicName": "MORĂRESCU ANCUŢA",
            "phone": "0740258896",
            "supplierName": "CMI DR. MORARESCU ANCUTA",
            "lat": 44.4907238,
            "lng": 26.0931837
        },
        {
            "address": "Iaşi, str. Vitejilor, nr.17",
            "contractNo": "370",
            "email": "morosanulidya@yahoo.com",
            "medicName": "MOROŞANU LIDYA",
            "phone": "0743173271",
            "supplierName": "CMI DR. MOROSANU LIDYA",
            "lat": 47.1584549,
            "lng": 27.6014418
        },
        {
            "address": "Hârlău, str. Stejari, nr.2",
            "contractNo": "2727",
            "email": "maria_mirabela_munteanu@yahoo.com",
            "medicName": "MUNTEANU MARIA-MIRABELA",
            "phone": "0743039023",
            "supplierName": "CMI DR. MUNTEANU MARIA MIRABELA",
            "lat": 47.428981,
            "lng": 26.897557
        },
        {
            "address": "Ruginoasa, _",
            "contractNo": "722",
            "email": "michaela_munteanu_68@yahoo.com",
            "medicName": "MUNTEANU MIHAELA",
            "phone": "0743651921",
            "supplierName": "CMI DR. MUNTEANU MIHAELA",
            "lat": 44.4146618,
            "lng": 26.1096228
        },
        {
            "address": "Mirosloveşti, _",
            "contractNo": "21",
            "email": "camelia_mrr@yahoo.com",
            "medicName": "MURARU STELA-CAMELIA",
            "phone": "0724208422",
            "supplierName": "CMI DR. MURARU M. STELA CAMELIA",
            "lat": 47.1527956,
            "lng": 26.6470021
        },
        {
            "address": "Hărmăneşti, _",
            "contractNo": "1530",
            "email": "emurgeanu@rdslink.ro",
            "medicName": "MURGEANU ELENA",
            "phone": "0721167116",
            "supplierName": "CMI DR. MURGEANU ELENA",
            "lat": 44.4267674,
            "lng": 26.1025384
        },
        {
            "address": "Iaşi, B-dul Independenţei, nr.32, Bl. Y5-Y6",
            "contractNo": "2997",
            "email": "lauramuris@yahoo.com",
            "medicName": "MURIŞ LAURA-MIHAELA",
            "phone": "0766626011",
            "supplierName": "CMI DR. MURIS LAURA MIHAELA",
            "lat": 47.1584549,
            "lng": 27.6014418
        },
        {
            "address": "Iaşi, B-dul N.Iorga, nr.39 A",
            "contractNo": "350",
            "email": "doina.mustata@gmail.com",
            "medicName": "MUSTAŢĂ DOINA",
            "phone": "0722278914",
            "supplierName": "CMI DR. MUSTATA DOINA",
            "lat": 47.1493839,
            "lng": 27.5792637
        },
        {
            "address": "Aroneanu, _",
            "contractNo": "85",
            "email": "angenaco69@yahoo.com",
            "medicName": "NACONECINÎI ANGELICA",
            "phone": "0744631663",
            "supplierName": "CMI DR. NACONECINII ANGELICA",
            "lat": 47.2015337,
            "lng": 27.6079725
        },
        {
            "address": "Iaşi, Str.Moara de Foc,nr.1",
            "contractNo": "270",
            "email": "simonanicoleta2002@yahoo.co.uk",
            "medicName": "NAGHI SIMONA-NICOLETA",
            "phone": "0745596670",
            "supplierName": "CMI DR. NAGHI SIMONA NICOLETA",
            "lat": 47.1739566,
            "lng": 27.5518178
        },
        {
            "address": "Iaşi, str. G.Ibraileanu, nr. 1-3",
            "contractNo": "3325",
            "email": "mihaela_nastasa65@yahoo.com",
            "medicName": "NASTASĂ MIHAELA",
            "phone": "0722552545",
            "supplierName": "CMI DR. NASTASA MIHAELA",
            "lat": 47.1713125,
            "lng": 27.5736439
        },
        {
            "address": "Motca, _",
            "contractNo": "1243",
            "email": "emil_nechita@yahoo.com",
            "medicName": "NECHITA EMIL",
            "phone": "0742766497",
            "supplierName": "CMI DR. NECHITA EMIL",
            "lat": 47.2381755,
            "lng": 26.6041714
        },
        {
            "address": "Hârlău, str. Stejari, nr.2",
            "contractNo": "327",
            "email": "neicu_stela2000@yahoo.com",
            "medicName": "NEICU STELA-TATIANA",
            "phone": "0744584643",
            "supplierName": "CMI DR. NEICU STELA TATIANA",
            "lat": 47.428981,
            "lng": 26.897557
        },
        {
            "address": "Iaşi, str. Hatman Şendrea, nr.2",
            "contractNo": "439",
            "email": "adriana.nisioiu@gmail.com",
            "medicName": "NISIOIU ADRIANA-GEORGETA",
            "phone": "0740230107",
            "supplierName": "CMI DR. NISIOIU ADRIANA GEORGETA",
            "lat": 47.1518185,
            "lng": 27.5714933
        },
        {
            "address": "Iaşi, B-dul .Primăverii, nr.19",
            "contractNo": "499",
            "email": "nistordaniela_is@yahoo.com",
            "medicName": "NISTOR DANIELA",
            "phone": "0754056286",
            "supplierName": "CMI DR. NISTOR DANIELA",
            "lat": 47.1584549,
            "lng": 27.6014418
        },
        {
            "address": "Iaşi, str. Vasile Lupu, nr.26-28",
            "contractNo": "1882",
            "email": "gnistornistor@yahoo.com",
            "medicName": "NISTOR GETTA",
            "phone": "0745658247",
            "supplierName": "CMI DR. NISTOR GETTA TRI-NIS",
            "lat": 47.1590054,
            "lng": 27.6027232
        },
        {
            "address": "Bivolari, _",
            "contractNo": "493",
            "email": "nistor_magda_anca@yahoo.com",
            "medicName": "NISTOR MAGDA-ANCA",
            "phone": "0745539833",
            "supplierName": "CMI DR. NISTOR MAGDA ANCA",
            "lat": 47.518761,
            "lng": 27.448999
        },
        {
            "address": "Erbiceni, _",
            "contractNo": "685",
            "email": "valentina_nistor20@yahoo.com",
            "medicName": "NISTOR VALENTINA-MIHAELA",
            "phone": "0745559018",
            "supplierName": "CMI DR. NISTOR VALENTINA MIHAELA",
            "lat": 47.2533138,
            "lng": 27.2397654
        },
        {
            "address": "Iaşi, str. Hatman Şendrea, nr.2",
            "contractNo": "1737",
            "email": "edithnita@yahoo.com",
            "medicName": "NIŢĂ MARIA-EDITTH",
            "phone": "0745995262",
            "supplierName": "CMI DR. NITA MARIA EDITTH",
            "lat": 47.1518185,
            "lng": 27.5714933
        },
        {
            "address": "Iaşi, str. Milcov, nr.20",
            "contractNo": "1794",
            "email": "otilia76@gmail.com",
            "medicName": "NOVAC OTILIA",
            "phone": "0751238448",
            "supplierName": "CMI DR. NOVAC OTILIA",
            "lat": 47.1584549,
            "lng": 27.6014418
        },
        {
            "address": "Iaşi, str. Sălciilor, nr.14",
            "contractNo": "696",
            "email": "alinaonc@yahoo.com",
            "medicName": "ONCIULESCU ALINA-VIOLETA",
            "phone": "0744472334",
            "supplierName": "CMI DR. ONCIULESCU ALINA VIOLETA",
            "lat": 47.14375,
            "lng": 27.5770399
        },
        {
            "address": "Iaşi, B-dul Independenţei, nr.16, corp Balneologie Bolta",
            "contractNo": "1724",
            "email": "lauraoniciuc@yahoo.com",
            "medicName": "ONICIUC LAURA GIANINA",
            "phone": "0720080881",
            "supplierName": "CMI DR. ONICIUC LAURA GIANINA",
            "lat": 47.1664939,
            "lng": 27.5873485
        },
        {
            "address": "Iaşi, Şos.Nicolina, nr.79",
            "contractNo": "127",
            "email": "vionuf@yahoo.com",
            "medicName": "ONOFRICIUC VIORICA",
            "phone": "0745371753",
            "supplierName": "CMI DR. ONOFRICIUC VIORICA",
            "lat": 47.1316592,
            "lng": 27.5714471
        },
        {
            "address": "Iaşi, B-dul Independenţei, Nr.16, et 1",
            "contractNo": "3407",
            "email": "suzana_alexandru@yahoo.com",
            "medicName": "OPINCĂ SUZANA-MARIA",
            "phone": "0757142392",
            "supplierName": "CMI DR. OPINCA SUZANA MARIA",
            "lat": 47.1664939,
            "lng": 27.5873485
        },
        {
            "address": "Româneşti, _",
            "contractNo": "476",
            "email": "coprisan@gmail.com",
            "medicName": "OPRIŞAN NARCIZA",
            "phone": "0745784905",
            "supplierName": "CMI DR. OPRISAN NARCIZA",
            "lat": 44.4267674,
            "lng": 26.1025384
        },
        {
            "address": "Mogoseşti, _",
            "contractNo": "3003",
            "email": "lidia_ostapov@yahoo.com",
            "medicName": "OSTAPOV LIDIA",
            "phone": "0751346006",
            "supplierName": "CMI DR. OSTAPOV LIDIA",
            "lat": 47.0351739,
            "lng": 27.5195162
        },
        {
            "address": "Valea Seacă, _",
            "contractNo": "1156",
            "email": "loredana.paicu@yahoo.com",
            "medicName": "PAICU LOREDANA",
            "phone": "0745232746",
            "supplierName": "CMI DR. PAICU LOREDANA",
            "lat": 46.2436795,
            "lng": 27.0532864
        },
        {
            "address": "Mirosloveşti, _",
            "contractNo": "310",
            "email": "palfloarea@yahoo.com",
            "medicName": "PAL FLOAREA",
            "phone": "0746191879",
            "supplierName": "CMI DR. PAL FLOAREA",
            "lat": 47.1527956,
            "lng": 26.6470021
        },
        {
            "address": "Schitu Duca, sat Pocreaca",
            "contractNo": "3431",
            "email": "doc.leonti@gmail.com",
            "medicName": "PANDELE MIHAELA",
            "phone": "0742402700",
            "supplierName": "CMI DR. PANDELE MIHAELA",
            "lat": 46.9661547,
            "lng": 27.7786291
        },
        {
            "address": "Iaşi, b-dul Socola, nr.82",
            "contractNo": "755",
            "email": "lidia.panfil@yahoo.com",
            "medicName": "PANFIL LIDIA",
            "phone": "0745650403",
            "supplierName": "CMI DR. PANFIL LIDIA",
            "lat": 47.1437884,
            "lng": 27.5958082
        },
        {
            "address": "Paşcani, b-dul Ştefan cel Mare, nr. 21",
            "contractNo": "6",
            "email": "cmi_paslaruv@yahoo.ro",
            "medicName": "PÂSLARU VIOREL",
            "phone": "0721204042",
            "supplierName": "CMI DR. PASLARU VIOREL",
            "lat": 47.2472348,
            "lng": 26.7243866
        },
        {
            "address": "Iaşi, Şos.Nicolina, nr.79",
            "contractNo": "2810",
            "email": "dr.patrascu_elena@yahoo.com",
            "medicName": "PATRAŞCU ELENA",
            "phone": "0740330888",
            "supplierName": "CMI DR. PATRASCU ELENA",
            "lat": 47.1316592,
            "lng": 27.5714471
        },
        {
            "address": "Paşcani, b-dul Ştefan cel Mare, nr.14",
            "contractNo": "344",
            "email": "pavalucalidia@yahoo.com",
            "medicName": "PĂVĂLUCĂ LIDIA",
            "phone": "0769680675",
            "supplierName": "CMI DR. PAVALUCA LIDIA",
            "lat": 47.2411237,
            "lng": 26.7233832
        },
        {
            "address": "Iaşi, b-dul Nicolae Iorga, nr.39A",
            "contractNo": "436",
            "email": "irina.pescaru@yahoo.com",
            "medicName": "PESCARU IRINA",
            "phone": "0722631947",
            "supplierName": "CMI DR. PESCARU IRINA",
            "lat": 47.1493839,
            "lng": 27.5792637
        },
        {
            "address": "Iaşi, str. Muşatini, nr.59",
            "contractNo": "2817",
            "email": "dr_simona_petrache@yahoo.com",
            "medicName": "PETRACHE SIMONA-MAGDALENA",
            "phone": "0723311088",
            "supplierName": "CMI DR. PETRACHE SIMONA MAGDALENA",
            "lat": 47.1626652,
            "lng": 27.5595284
        },
        {
            "address": "Todireşti, _",
            "contractNo": "1204",
            "email": "cmidrpi314mf@gmail.com",
            "medicName": "PETREA IULIANA",
            "phone": "0762137928",
            "supplierName": "CMI DR. PETREA IULIANA",
            "lat": 47.3252015,
            "lng": 26.8382094
        },
        {
            "address": "Ţibaneşti, _",
            "contractNo": "1030",
            "email": "petrescualinaconsuela@yahoo.com",
            "medicName": "PETRESCU ALINA-CONSUELA",
            "phone": "0740090999",
            "supplierName": "CMI DR. PETRESCU ALINA CONSUELA",
            "lat": 46.90787419999999,
            "lng": 27.3380993
        },
        {
            "address": "Iaşi, B-dul B-dul .Primăverii, nr.4",
            "contractNo": "58",
            "email": "mariana.i.petrescu@gmail.com",
            "medicName": "PETRESCU MARIANA",
            "phone": "0745177780",
            "supplierName": "CMI DR. PETRESCU MARIANA",
            "lat": 47.1584549,
            "lng": 27.6014418
        },
        {
            "address": "Iaşi, str. Toma Cozma, nr.4",
            "contractNo": "1671",
            "email": "pantoneta@yahoo.com",
            "medicName": "PETROAIE ANTONETA-DACIA",
            "phone": "0744454703",
            "supplierName": "CMI DR. PETROAIE ANTONETA DACIA",
            "lat": 47.17334049999999,
            "lng": 27.56465
        },
        {
            "address": "Târgu Frumos, str. Petru Rareş, nr.58",
            "contractNo": "486",
            "email": "adrianpetrut2006@yahoo.com",
            "medicName": "PETRUŢ IULIA",
            "phone": "0743046236",
            "supplierName": "CMI DR. PETRUT IULIA",
            "lat": 47.211075,
            "lng": 27.016318
        },
        {
            "address": "Răducăneni, _",
            "contractNo": "17",
            "email": "cosminagache87@yahoo.com",
            "medicName": "PINTILIE MARIA",
            "phone": "0753303479",
            "supplierName": "CMI DR. PINTILIE  MARIA",
            "lat": 46.9559993,
            "lng": 27.9416661
        },
        {
            "address": "Holboca, sat Dancu",
            "contractNo": "382",
            "email": "doinapintilii@yahoo.com",
            "medicName": "PINTILII DOINA",
            "phone": "0743164174",
            "supplierName": "CMI DR. PINTILII DOINA",
            "lat": 47.1561861,
            "lng": 27.6656228
        },
        {
            "address": "Iaşi, Şos.Nicolina, nr.79",
            "contractNo": "450",
            "email": "mihaelapoeana@yahoo.com",
            "medicName": "POEANĂ MIHAELA",
            "phone": "0744218976",
            "supplierName": "CMI DR. POEANA MIHAELA",
            "lat": 47.1316592,
            "lng": 27.5714471
        },
        {
            "address": "Iaşi, str. Ion Creanga, nr.73A",
            "contractNo": "410",
            "email": "elpoeata@yahoo.com",
            "medicName": "POEATĂ ELENA",
            "phone": "0745923123",
            "supplierName": "CMI DR. POEATA ELENA",
            "lat": 47.1613359,
            "lng": 27.616034
        },
        {
            "address": "Iaşi, str. Ion Creanga, nr.73A",
            "contractNo": "899",
            "email": "elenapopadr@yahoo.com",
            "medicName": "POPA ELENA",
            "phone": "0723635745",
            "supplierName": "CMI DR. POPA ELENA",
            "lat": 47.1613359,
            "lng": 27.616034
        },
        {
            "address": "Iaşi, str. Ion Creanga, nr.73A",
            "contractNo": "1473",
            "email": "ioanpopa57@yahoo.com",
            "medicName": "POPA GEORGETA-IULIANA",
            "phone": "0740169795",
            "supplierName": "CMI DR. POPA GEORGETA IULIANA",
            "lat": 47.1613359,
            "lng": 27.616034
        },
        {
            "address": "Iaşi, B-dul Independenţei,nr.16",
            "contractNo": "71",
            "email": "dr.popa.iuliana@gmail.com",
            "medicName": "POPA IULIANA",
            "phone": "0745585742",
            "supplierName": "CMI DR. POPA IULIANA",
            "lat": 47.1664939,
            "lng": 27.5873485
        },
        {
            "address": "Mogoşeşti-Siret, _",
            "contractNo": "1852",
            "email": "ncsrpp@yahoo.com",
            "medicName": "POPA MIHAELA",
            "phone": "0728865513",
            "supplierName": "CMI DR. POPA MIHAELA",
            "lat": 47.1388593,
            "lng": 26.7912294
        },
        {
            "address": "Miroslava, str. Prof.Anton Nitu, nr.7A",
            "contractNo": "292",
            "email": "dr.aninapopescu@yahoo.com",
            "medicName": "POPESCU ANINA",
            "phone": "0745615996",
            "supplierName": "CMI DR. POPESCU ANINA",
            "lat": 47.1491364,
            "lng": 27.5209305
        },
        {
            "address": "Ciorteşti, _",
            "contractNo": "1252",
            "email": "popescufrancisc@yahoo.com",
            "medicName": "POPESCU CONSTANTIN-FRANCISC",
            "phone": "0744812753",
            "supplierName": "CMI DR. POPESCU CONSTANTIN FRANCISC",
            "lat": 46.9132926,
            "lng": 27.8448583
        },
        {
            "address": "Roşcani, sat Rădeni",
            "contractNo": "3706",
            "email": "monipop1134@yahoo.com",
            "medicName": "POPESCU MONICA-CRISTINA",
            "phone": "0740429753",
            "supplierName": "CMI DR. POPESCU MONICA CRISTINA",
            "lat": 47.4297537,
            "lng": 27.4356777
        },
        {
            "address": "Iaşi, B-dul. b-dul Ştefan cel Mare şi Sfânt, nr.10",
            "contractNo": "1236",
            "email": "evelina.popovici@yahoo.com",
            "medicName": "POPOVICI EVELINA-SORINA",
            "phone": "0723396720",
            "supplierName": "CMI DR. POPOVICI EVELINA SORINA",
            "lat": 47.1638964,
            "lng": 27.5809595
        },
        {
            "address": "Iaşi, str. Hatman Şendrea, nr.2",
            "contractNo": "454",
            "email": "octaviana_postolache@yahoo.com",
            "medicName": "POSTOLACHE OCTAVIANA-GEORGETA",
            "phone": "0745389395",
            "supplierName": "CMI DR. POSTOLACHE OCTAVIANA GEORGETA",
            "lat": 47.1518185,
            "lng": 27.5714933
        },
        {
            "address": "Iaşi, str. Toma Cozma, nr.4",
            "contractNo": "2833",
            "email": "cmipreliczoana@yahoo.com",
            "medicName": "PRELICZ OANA-GABRIELA",
            "phone": "0727857161",
            "supplierName": "CMI DR. PRELICZ OANA-GABRIELA",
            "lat": 47.17334049999999,
            "lng": 27.56465
        },
        {
            "address": "Târgu Frumos, str. Petru Rareş, nr.58",
            "contractNo": "830",
            "email": "c.a.e.pricop@gmail.com",
            "medicName": "PRICOP CARMEN",
            "phone": "0723680521",
            "supplierName": "CMI DR. PRICOP CARMEN",
            "lat": 47.211075,
            "lng": 27.016318
        },
        {
            "address": "Dumeşti, _",
            "contractNo": "2584",
            "email": "roxpuscasu@yahoo.com",
            "medicName": "PUŞCAŞU ROXANA-LUMINIŢA",
            "phone": "0769240523",
            "supplierName": "CMI DR. PUŞCAŞU ROXANA LUMINIŢA",
            "lat": 47.1744284,
            "lng": 27.3418761
        },
        {
            "address": "Paşcani, str. Moldovei, nr.3",
            "contractNo": "1238",
            "email": "camelia_racila@yahoo.com",
            "medicName": "RǍCILĂ CAMELIA",
            "phone": "0733025851",
            "supplierName": "CMI DR. RACILA CAMELIA",
            "lat": 47.24854,
            "lng": 26.71505
        },
        {
            "address": "Coarnele Caprei, _",
            "contractNo": "2531",
            "email": "danielradoi@yahoo.com",
            "medicName": "RĂDOI DANIEL",
            "phone": "0747910992",
            "supplierName": "CMI DR. RADOI DANIEL",
            "lat": 47.3885734,
            "lng": 27.10759
        },
        {
            "address": "Coarnele Caprei, _",
            "contractNo": "1795",
            "email": "roxanamarta@yahoo.com",
            "medicName": "RĂDOI MARTA-ROXANA",
            "phone": "0747552838",
            "supplierName": "CMI DR. RADOI MARTA ROXANA",
            "lat": 47.3885734,
            "lng": 27.10759
        },
        {
            "address": "Răducăneni, str. Principală 185",
            "contractNo": "2419",
            "email": "roxana.raduu@yahoo.com",
            "medicName": "RADU ROXANA",
            "phone": "0740369891",
            "supplierName": "CMI DR. RADU  ROXANA",
            "lat": 46.9559993,
            "lng": 27.9416661
        },