{
    "list": [
        {
            "address": "CHISODA; P.SEC.GIROC, STR.NICOLAE FIRU NR.50; STR. TRANDAFIRILOR NR.24",
            "contractNo": "1",
            "email": "cm.dr.acimov@gmail.com",
            "medicName": "ACIMOV-TOMA VIANA CAMELIA",
            "phone": "0744892427",
            "supplierName": "CABINET MEDICAL DR. TOMA VIANA",
            "lat": 45.7038332,
            "lng": 21.2121718
        },
        {
            "address": "TIMISOARA, B-DUL EROILOR DE LA TISA 1-3 AP.1-2",
            "contractNo": "2",
            "email": "cab.cristinaadam@gmail.com",
            "medicName": "ADAM CAMELIA CRISTINA",
            "phone": "0723168955",
            "supplierName": "CABINET MEDICAL DR.CRISTINA ADAM",
            "lat": 45.7456121,
            "lng": 21.2364016
        },
        {
            "address": "PISCHIA; , STR.- NR.10;",
            "contractNo": "3",
            "email": "CMI.Adancudaniela@yahoo.com",
            "medicName": "ADANCU DANIELA",
            "phone": "0745528705",
            "supplierName": "CABINET MEDICAL MEDICINA GENERALA PEDIATRIE DR. ADANCU DANIELA",
            "lat": 45.9056598,
            "lng": 21.3400613
        },
        {
            "address": "LOVRIN, NR.254",
            "contractNo": "4",
            "email": "mirela_adancu@yahoo.com",
            "medicName": "ADINCU MIRELA",
            "phone": "0745210609",
            "supplierName": "CABINET MEDICAL MEDICINA GENERALA PEDIATRIE DR. ADANCU MIRELA",
            "lat": 45.9691796,
            "lng": 20.7709848
        },
        {
            "address": "TIMISOARA, STR.BUCOVINEI NR.19A",
            "contractNo": "5",
            "email": "oana.agoston@yahoo.com",
            "medicName": "AGOSTON OANA MIHAELA",
            "phone": "729444964",
            "supplierName": "CABINET MEDICAL MEDICINA DE FAMILIE DR.AGOSTON",
            "lat": 45.7681857,
            "lng": 21.2098629
        },
        {
            "address": "MORAVITA, NR. 296",
            "contractNo": "6",
            "email": "dr.airfhisham@gmail.com",
            "medicName": "AIRF HISHAM",
            "phone": "724215535",
            "supplierName": "CABINET MEDICAL MEDICINA DE FAMILIE DR.AIRF HISHAM",
            "lat": 45.25676439999999,
            "lng": 21.2690163
        },
        {
            "address": "TIMISOARA, STR.HOLDELOR BL.B11 AP.1",
            "contractNo": "7",
            "email": "cm.dalmed@yahoo.com",
            "medicName": "ALEXANDRU DELIA",
            "phone": "0744661604",
            "supplierName": "CENTRUL MEDICAL DALMED SRL",
            "lat": 45.7739858,
            "lng": 21.2386115
        },
        {
            "address": "TIMISOARA, STR.DIANA NR.7",
            "contractNo": "8",
            "email": "alexandrugheorghe43@yahoo.com",
            "medicName": "ALEXANDRU GHEORGHE",
            "phone": "723530330",
            "supplierName": "POLICLINICA OMNISAN",
            "lat": 45.74511469999999,
            "lng": 21.2374706
        },
        {
            "address": "TIMISOARA, STR.MIRON COSTIN NR.1,AP.1",
            "contractNo": "9",
            "email": "ambruscristina.castm@yahoo.com",
            "medicName": "AMBRUS CRISTINA DANIELA",
            "phone": "742598885",
            "supplierName": "SC DR. AMBRUS CRISTINA SRL",
            "lat": 45.748421,
            "lng": 21.218205
        },
        {
            "address": "TIMISOARA, STR.ALUNIS NR.38",
            "contractNo": "10",
            "email": "andra.veronica.daniela@gmail.com",
            "medicName": "ANDRA VERONICA DANIELA",
            "phone": "0356005322 0744101768",
            "supplierName": "CABINET MEDICAL INDIVIDUAL DR. ANDRA",
            "lat": 45.72311029999999,
            "lng": 21.2283482
        },
        {
            "address": "TIMISOARA, STR. C.TORONTALULUI NR.32/A",
            "contractNo": "11",
            "email": "iulia.andrasoni@yahoo.com",
            "medicName": "ANDRASONI IULIA STEFANA",
            "phone": "722577608",
            "supplierName": "CABINET MEDICAL MEDICINA DE FAMILIE DR.ANDRASONI IULIA",
            "lat": 45.770331,
            "lng": 21.218833
        },
        {
            "address": "TIMISOARA, STR.MARTIR D.JUGANARU  NR.13 BL.64,SC.C AP.2",
            "contractNo": "12",
            "email": "cabinet.medical.dr.andrei@gmail.ro",
            "medicName": "ANDREI ANA",
            "phone": "221064; 0744517265",
            "supplierName": "CABINET MEDICAL DR. ANDREI ANA",
            "lat": 45.7488716,
            "lng": 21.2086793
        },
        {
            "address": "JEBEL, NR.296",
            "contractNo": "13",
            "email": "mihaelaandrei7011@gmail.com",
            "medicName": "ANDREI MIHAELA",
            "phone": "0256/397208;   0722991914",
            "supplierName": "SC PROSANTE SRL",
            "lat": 45.5623937,
            "lng": 21.2144956
        },
        {
            "address": "TEREMIA MICA; P.SEC.JIMBOLIA, NR.24;                  STR.C.DIEL NR.59",
            "contractNo": "14",
            "email": "kato_andro@yahoo.com",
            "medicName": "ANDRO ECATERINA",
            "phone": "729126061",
            "supplierName": "CABINET MEDICAL DR.ANDRO ECATERINA",
            "lat": 45.9603107,
            "lng": 20.4950115
        },
        {
            "address": "TIMISOARA, C.BUZIASULUI NR.28",
            "contractNo": "15",
            "email": "rodiluca@yahoo.com",
            "medicName": "ANGHEL LILIANA",
            "phone": "285828; 0744557752",
            "supplierName": "CABINET MEDICAL MEDICINA GENERALA PEDIATRIE DR. LUCA RODICA",
            "lat": 45.7321684,
            "lng": 21.2596458
        },
        {
            "address": "STIUCA, STR.PRINCIPALA NR.92",
            "contractNo": "16",
            "email": "ssilvia35@yahoo.com",
            "medicName": "ARJOCA SILVIA",
            "phone": "0727748810",
            "supplierName": "CABINET MEDICAL DR.ARJOCA SILVIA",
            "lat": 44.4103679,
            "lng": 26.1691406
        },
        {
            "address": "DUDESTII VECHI, NR.355",
            "contractNo": "17",
            "email": "augustecata@gmai.com",
            "medicName": "AUGUSTINOV ECATERINA",
            "phone": "726824275",
            "supplierName": "CABINET DR. AUGUSTINOV ECATERINA - MEDICINA GENERALA",
            "lat": 46.0423043,
            "lng": 20.4750639
        },
        {
            "address": "DUDESTII VECHI, NR.355",
            "contractNo": "18",
            "email": "augustpetrua@gmail.com",
            "medicName": "AUGUSTINOV PETRU",
            "phone": "729343298",
            "supplierName": "CABINET MEDICAL MEDICINA GENERALA DR. AUGUSTINOV",
            "lat": 46.0423043,
            "lng": 20.4750639
        },
        {
            "address": "TIMISOARA, STR.C-TIN  TITEL PETRESCU NR.6",
            "contractNo": "19",
            "email": "badea_andreea@hotmail.com",
            "medicName": "BADEA ANDREEA CORINA",
            "phone": "722407744;    0256-247811",
            "supplierName": "CABINET MEDICAL MEDICINA DE FAMILIE DR.BADEA ANDREEA CORINA",
            "lat": 45.7488716,
            "lng": 21.2086793
        },
        {
            "address": "TIMISOARA, STR.MIRCEA HOINIC NR.8",
            "contractNo": "20",
            "email": "bosneag.mariana@gmail.com",
            "medicName": "BADEA DANIELA",
            "phone": "745393308",
            "supplierName": "CABINET MEDICAL MEDICINA DE FAMILIE DR. BOSNEAG",
            "lat": 45.7281227,
            "lng": 21.1813412
        },
        {
            "address": "TIMISOARA, STR.C-TIN  TITEL PETRESCU NR.6",
            "contractNo": "21",
            "email": "badea_andreea@hotmail.com",
            "medicName": "BADEA RODICA",
            "phone": "722407744",
            "supplierName": "CABINET MEDICAL MEDICINA DE FAMILIE DR.BADEA ANDREEA CORINA",
            "lat": 45.7488716,
            "lng": 21.2086793
        },
        {
            "address": "TOPOLOVATUL MARE, STR.C-TIN  TITEL PETRESCU NR.6",
            "contractNo": "22",
            "email": "aurelbadulescu@yahoo.com",
            "medicName": "BADULESCU AUREL",
            "phone": "0722873360",
            "supplierName": "CABINET MEDICAL MEDICINA GENERALA DR. BADULESCU AUREL",
            "lat": 45.7740465,
            "lng": 21.6240283
        },
        {
            "address": "VARIAS; , NR.551;            NR.",
            "contractNo": "23",
            "email": "olivera0007@yahoo.com",
            "medicName": "BALAN NICOLIN MELANIA",
            "phone": "723704981",
            "supplierName": "CABINET MEDICAL MEDICINA GENERALA PEDIATRIE DR. BALAN NICOLIN MELANIA",
            "lat": 46.0101167,
            "lng": 20.9605309
        },
        {
            "address": "BULGARUS, NR.363",
            "contractNo": "24",
            "email": "olivera0007@yahoo.com",
            "medicName": "BALAN NICOLIN OLIVERA",
            "phone": "762536404",
            "supplierName": "CABINET MEDICAM MED.FAM. DR.BALAN NICOLIN OLIVERA",
            "lat": 44.4086298,
            "lng": 26.010983
        },
        {
            "address": "TIMISOARA, STR.CIRESULUI NR.1",
            "contractNo": "25",
            "email": "miha.balean@gmail.com",
            "medicName": "BALEAN MIHAELA",
            "phone": "745901911",
            "supplierName": "CABINET MEDICAL MEDICINA GENERALA DR.BALEAN MIHAELA",
            "lat": 45.7488716,
            "lng": 21.2086793
        },
        {
            "address": "PECIU NOU;    P.SEC.SINMARTINUL SARBESC, NR. 481;  NR.280",
            "contractNo": "26",
            "email": "balintandreea1979@gmail.com",
            "medicName": "BALINT ANDREEA VERONICA",
            "phone": "741130506",
            "supplierName": "CABINET MEDICAL MEDICINA DE FAMILIE DR.BALINT ANDREEA",
            "lat": 45.6072048,
            "lng": 20.9564203
        },
        {
            "address": "LIEBLING, NR.56",
            "contractNo": "27",
            "email": "cabmedbalmez@yahoo.com",
            "medicName": "BALMEZ AURICA",
            "phone": "751628149",
            "supplierName": "CABINET MEDICAL MEDICINA GENERALA ADULTI DR. BALMEZ",
            "lat": 45.5818018,
            "lng": 21.3176601
        },
        {
            "address": "LUGOJ, STR.CUZA VODA NR.12 , ap.2",
            "contractNo": "28",
            "email": "lilianablf26@yahoo.com",
            "medicName": "BALUTA LILIANA - FLOAREA",
            "phone": "355383; '0723812195",
            "supplierName": "CABINET MEDICAL MEDICINA DE FAMILIE DR.BALUTA LILIANA",
            "lat": 45.6814043,
            "lng": 21.9030267
        },
        {
            "address": "BUZIAS                 , STR.EMINESCU NR.32",
            "contractNo": "29",
            "email": "alina_banfalvi@yahoo.com",
            "medicName": "BANFALVI ALINA SIMONA",
            "phone": "0761614196; 321930",
            "supplierName": "CABINET MEDICAL MEDICINA DE FAMILIE DR.BANFALVI ALINA SIMONA",
            "lat": 45.6486925,
            "lng": 21.6061873
        },
        {
            "address": "TIMISOARA, STR.TITULESCU NR.8",
            "contractNo": "30",
            "email": "biosys.cabinet@gmail.com",
            "medicName": "BANIAS SIMONA",
            "phone": "256491123; 0728110946",
            "supplierName": "SCM BIOSYS",
            "lat": 45.7488716,
            "lng": 21.2086793
        },
        {
            "address": "SANDRA, NR.30",
            "contractNo": "31",
            "email": "vioricabarbieru@yahoo.com",
            "medicName": "BARBIERU VIORICA",
            "phone": "730196994",
            "supplierName": "CABINET MEDICAL MEDICINA GENERALA DR. BARBIERU VIORICA",
            "lat": 44.4267674,
            "lng": 26.1025384
        },
        {
            "address": "GIROC, STR. TRANDAFIRILOR NR.24",
            "contractNo": "32",
            "email": "barbonilucia@yahoo.com",
            "medicName": "BARBONI LUCIA",
            "phone": "721883646",
            "supplierName": "CABINET MEDICAL DE MEDICINA GENERALA DR. BARBONI LUCIA",
            "lat": 45.7010574,
            "lng": 21.2328915
        },
        {
            "address": "TRAIAN VUIA, NR.33",
            "contractNo": "33",
            "email": "adrianabarbucjastm@yahoo.com",
            "medicName": "BARBU ADRIANA",
            "phone": "721282260",
            "supplierName": "CABINET MEDICAL MEDICINA DE FAMILIE DR.BARBU ADRIANA",
            "lat": 44.439184,
            "lng": 26.1015685
        },
        {
            "address": "TIMISOARA, STR.GEN.DRAGALINA NR.2",
            "contractNo": "34",
            "email": "cab.dr.bardita.monica@gmail.com",
            "medicName": "BARDITA MONICA",
            "phone": "745316770",
            "supplierName": "CABINET MEDICAL MEDICINA DE FAMILIE DR.BARDITA",
            "lat": 45.7435327,
            "lng": 21.2123584
        },
        {
            "address": "TIMISOARA, C.BUZIASULUI NR.28 CAM. NR.4",
            "contractNo": "35",
            "email": "becherulenuta@yahoo.com",
            "medicName": "BECHERU LENUTA",
            "phone": "292188; 0723632832",
            "supplierName": "CABINET MEDICAL MEDICINA GENERALA DR. BECHERU LENUTA",
            "lat": 45.73171019999999,
            "lng": 21.260853
        },
        {
            "address": "CARPINIS, STR.III NR.30",
            "contractNo": "36",
            "email": "afroditabendariucas@gmail.com",
            "medicName": "BENDARIU AFRODITA ELENA",
            "phone": "765239221",
            "supplierName": "CABINET MEDICAL MEDICINA GENERALA DR. BENDARIU AFRODITA",
            "lat": 45.79102719999999,
            "lng": 20.8995117
        },
        {
            "address": "TIMISOARA, STR.C.BUZIASULUI NR.1",
            "contractNo": "37",
            "email": "cmidvg@yahoo.com",
            "medicName": "BENEC RAMONA",
            "phone": "222257",
            "supplierName": "CABINET MEDICAL MEDICINA GENERALA PEDIATRIE DR. VASILIE GABRIELA",
            "lat": 45.7488716,
            "lng": 21.2086793
        },
        {
            "address": "GIARMATA, STR.IZVORULUI NR.336",
            "contractNo": "38",
            "email": "carmen.berzescu@gmail.com",
            "medicName": "BERZESCU CARMEN",
            "phone": "0723251923",
            "supplierName": "CABINET MEDICAL MEDICINA GENERALA DR.BERZESCU",
            "lat": 45.8384316,
            "lng": 21.3136383
        },
        {
            "address": "GIERA; P.SEC.DETA, NR.134; STR.TG.MARE BL.B3,AP.4",
            "contractNo": "39",
            "email": "bineadaniela@yahoo.com",
            "medicName": "BINEA DANIELA IRINA",
            "phone": "729853173",
            "supplierName": "CABINET MEDICAL MEDICINA DE FAMILIE DR.BINEA DANIELA",
            "lat": 45.4068115,
            "lng": 20.9940162
        },
        {
            "address": "TIMISOARA, STR.DACILOR NR.10",
            "contractNo": "40",
            "email": "liliana.birou@gmail.com",
            "medicName": "BIROU LILIANA",
            "phone": "731014417",
            "supplierName": "MEDSPACE SRL",
            "lat": 45.7589591,
            "lng": 21.2496809
        },
        {
            "address": "PISCHIA  P.SEC.MURANI, STR.PRINCIPALA NR.10;386",
            "contractNo": "41",
            "email": "bivolaru.dorina@gmail.com",
            "medicName": "BIVOLARU DORINA CORNELIA",
            "phone": "769636577",
            "supplierName": "CABINET MEDICAL MEDICINA GENERALA DR. BIVOLARU DORINA CORNELIA",
            "lat": 45.9252285,
            "lng": 21.3034681
        },
        {
            "address": "JAMUL MARE, NR.569-570",
            "contractNo": "42",
            "email": "blajdanielaana@yahoo.com",
            "medicName": "BLAJ DANIELA ANA",
            "phone": "745520753",
            "supplierName": "CABINET MEDICAL         DR.BLAJ",
            "lat": 45.2545702,
            "lng": 21.4057661
        },
        {
            "address": "TIMISOARA, AL.INULUI NR.2",
            "contractNo": "43",
            "email": "boangiu.daniela@yahoo.com",
            "medicName": "BOANGIU DANIELA ELENA ANTOANETA",
            "phone": "245052; 0744534785",
            "supplierName": "CABINET MEDICAL MEDICINA GENERALA COPII DR. BOANGIU",
            "lat": 45.7306114,
            "lng": 21.2104984
        },
        {
            "address": "TIMISOARA, STR. PACIUREA NR. 5",
            "contractNo": "44",
            "email": "office@medicis.ro",
            "medicName": "BOBILCA ANNE-MARIE IOHANNA",
            "phone": "0256-433733          0729991519",
            "supplierName": "SC MEDICI'S S.R.L.",
            "lat": 45.7574779,
            "lng": 21.2388015
        },
        {
            "address": "TIMISOARA, V.BABES NR.27",
            "contractNo": "45",
            "email": "cabmeddr.bobleanta@gmail.com",
            "medicName": "BOBLEANTA ILDICO",
            "phone": "730663638",
            "supplierName": "CAB.MED. DR.BOBLEANTA",
            "lat": 45.7572077,
            "lng": 21.2365267
        },
        {
            "address": "TIMISOARA, STR.IANCU FLONDOR NR.47",
            "contractNo": "46",
            "email": "medicaliss@gmail.com",
            "medicName": "BODEA MARIANA ROXANA",
            "phone": "226599;    0723154410",
            "supplierName": "SOCIETATE CIVILA MEDICALA MEDICALI'S",
            "lat": 45.7680924,
            "lng": 21.2115081
        },
        {
            "address": "TIMISOARA, STR.V.BABES NR.21",
            "contractNo": "47",
            "email": "bogolea.cjas@gmail.com",
            "medicName": "BOGOLEA VIVIANA CORINA MIOARA",
            "phone": "722121454",
            "supplierName": "DR.BOGOLEA& DR.MARGAN CABINET MEDICAL MEDICINA GENERALA",
            "lat": 45.7448227,
            "lng": 21.2337787
        },
        {
            "address": "TIMISOARA, D.LINTIA NR.2",
            "contractNo": "48",
            "email": "drbold.maria@gmail.com",
            "medicName": "BOLD MARIA",
            "phone": "723377143",
            "supplierName": "CABINET MEDICAL DR.BOLD",
            "lat": 45.7488716,
            "lng": 21.2086793
        },
        {
            "address": "LUGOJ ;                P. SEC.BALINT             , STR.CEAHLAULUI NR.10 BL.34 SC.A,AP.1",
            "contractNo": "49",
            "email": "radubologa1@gmail.com",
            "medicName": "BOLOGA RADU CONSTANTIN",
            "phone": "333227; 352501; '0723335501",
            "supplierName": "CABINET MEDICAL DR. BOLOGA RADU",
            "lat": 45.69209499999999,
            "lng": 21.9066589
        },
        {
            "address": "TIMISOARA, STR.MIRCEA HOINIC NR.8",
            "contractNo": "50",
            "email": "bosneag.mariana@gmail.com",
            "medicName": "BOSNEAG MARIANA",
            "phone": "745393308",
            "supplierName": "CABINET MEDICAL MEDICINA DE FAMILIE DR. BOSNEAG",
            "lat": 45.7281227,
            "lng": 21.1813412
        },
        {
            "address": "TIMISOARA, STR.TEBEA NR.7",
            "contractNo": "51",
            "email": "cmi.dr.marinela.botoca@gmail.com",
            "medicName": "BOTOCA MARINELA",
            "phone": "472038; '0744611842",
            "supplierName": "CABINET MEDICAL MEDICINA GENERALA PEDIATRIE DR. BOTOCA MARINELA",
            "lat": 45.755403,
            "lng": 21.2070943
        },
        {
            "address": "TIMISOARA, STR.C. MARTIRILOR NR.21,SC.B,AP.2",
            "contractNo": "52",
            "email": "mariagavruta@yahoo.com",
            "medicName": "BRATEANU LAURA",
            "phone": "463791; 0723164041",
            "supplierName": "S.C.DR.GAVRUTA SRL",
            "lat": 45.7448227,
            "lng": 21.2337787
        },
        {
            "address": "TIMISOARA, STR.MARTIR C-TIN RADU NR.18 B",
            "contractNo": "53",
            "email": "drmirela.bratosin16@gmail.com",
            "medicName": "BRATOSIN MIRELA",
            "phone": "722588783",
            "supplierName": "CABINET MEDICAL MEDICINA GENERALA PROFI - MED",
            "lat": 45.7488716,
            "lng": 21.2086793
        },
        {
            "address": "RECAS, STR.PRINCIPALA NR.122",
            "contractNo": "54",
            "email": "bretean@rdslink.ro",
            "medicName": "BRETEAN MARIA",
            "phone": "744472533",
            "supplierName": "CABINET MEDICAL DR. BRETEAN",
            "lat": 45.8011607,
            "lng": 21.5119138
        },
        {
            "address": "TIMISOARA, C.SAGULUI NR.83; BL.9;SC. C AP.3",
            "contractNo": "55",
            "email": "venerabucur@yahoo.com",
            "medicName": "BUCUR VENERA",
            "phone": "215584; '0723215196",
            "supplierName": "SOCIETATE CIVILA MEDICALA DUO-MED",
            "lat": 45.7237014,
            "lng": 21.2016885
        },
        {
            "address": "TIMISOARA, STR.I.VACARESCU NR.23",
            "contractNo": "56",
            "email": "cmmf.budiu@gmail.com",
            "medicName": "BUDIU IOANA GABRIELA",
            "phone": "766327730",
            "supplierName": "CABINET MEDICAL MEDICINA DE FAMILIE DR.IOANA BUDIU",
            "lat": 45.743583,
            "lng": 21.209427
        },
        {
            "address": "LUGOJ, STR.PONGRATZ NORBERT NR.25",
            "contractNo": "57",
            "email": "jacqueline.karina@yahoo.com",
            "medicName": "BUDULAN ENE JAQUELINE KARINA",
            "phone": "0729124967; 354959",
            "supplierName": "CABINET MEDICAL MEDICINA DE FAMILIE VITA- REMEDIS-              DR. BUDULAN ENE JACQUELINE KARINA",
            "lat": 45.6906635,
            "lng": 21.896948
        },
        {
            "address": "TIMISOARA, STR. CRONICAR ION NECULCE 8 CAM 3",
            "contractNo": "58",
            "email": "cab.dr.budulan.simona@gmail.com",
            "medicName": "BUDULAN SIMONA ADRIANA",
            "phone": "0721425712;   0256430395",
            "supplierName": "CABINET MEDICAL MEDICINA DE FAMILIE DR. BUDULAN SIMONA",
            "lat": 45.7488716,
            "lng": 21.2086793
        },
        {
            "address": "MARGINA, NR.257",
            "contractNo": "59",
            "email": "bulgarescumarlena@dsnet.ro",
            "medicName": "BULGARESCU MARLENA",
            "phone": "726299709",
            "supplierName": "CABINET MEDICAL MEDICINA DE FAMILIE DR.BULGARESCU MARLENA",
            "lat": 44.44323,
            "lng": 26.1089299
        },
        {
            "address": "TIMISOARA, STR.1 DECEMBRIE NR.106",
            "contractNo": "60",
            "email": "profilaxis.contractare@gmail.com",
            "medicName": "BULGARU MIRELA",
            "phone": "288782;   0748110390",
            "supplierName": "SC M-PROFILAXIS SRL",
            "lat": 45.7474046,
            "lng": 21.2478371
        },
        {
            "address": "TIMISOARA; P.SEC. COMLOSUL MARE, STR.P.STEFU NR.31; NR.799",
            "contractNo": "61",
            "email": "dr.bulzan.adriana@gmail.com",
            "medicName": "BULZAN ADRIANA",
            "phone": "725328670",
            "supplierName": "CABINET MEDICAL MEDICINA GENERALA DR. BULZAN ADRIANA",
            "lat": 45.7488716,
            "lng": 21.2086793
        },
        {
            "address": "CIACOVA, STR.OBRADOVICI NR.3",
            "contractNo": "62",
            "email": "nicoletta_bunea@yahoo.com",
            "medicName": "BUNEA MARIA NICOLETA",
            "phone": "0727886779",
            "supplierName": "CABINET MEDICAL MEDICINA GENERALA DR. BUNEA",
            "lat": 45.5097797,
            "lng": 21.1298218
        },
        {
            "address": "TIMISOARA, AL.INULUI NR.4",
            "contractNo": "63",
            "email": "eleonoraburca@yahoo.com",
            "medicName": "BURCA ELEONORA",
            "phone": "723663597",
            "supplierName": "CABINET MEDICAL DR. BURCA ELEONORA",
            "lat": 45.7302657,
            "lng": 21.2104635
        },
        {
            "address": "CARPINIS;             P.SEC. SATCHINEZ, STR.III NR.30",
            "contractNo": "64",
            "email": "cabinetzangormed@gmail.com",
            "medicName": "BURLOIU ION",
            "phone": "744603656",
            "supplierName": "CABINET ZANGOR MED.",
            "lat": 45.79102719999999,
            "lng": 20.8995117
        },
        {
            "address": "TIMISOARA, STR.INTR. TOPOLOGULUI NR.6,BL.D1,AP.1",
            "contractNo": "65",
            "email": "sanofam@yahoo.com",
            "medicName": "BURZA EUGENIA OLIVIA",
            "phone": "0728026035; 0256207057",
            "supplierName": "CENTRUL MEDICAL SANOFAM SRL",
            "lat": 45.76311099999999,
            "lng": 21.2544301
        },
        {
            "address": "TIMISOARA, P-TA CRUCII NR.7",
            "contractNo": "66",
            "email": "cristinarbuzulica@gmail.com",
            "medicName": "BUZULICA CRISTINA",
            "phone": "742125178",
            "supplierName": "CABINET MEDICAL DR. BUZULICA CRISTINA",
            "lat": 45.741599,
            "lng": 21.231876
        },
        {
            "address": "MASLOC;      P.SEC.ALIOS, NR.99;   NR.262",
            "contractNo": "67",
            "email": "cadariuadriana@yahoo.com",
            "medicName": "CADARIU ADRIANA",
            "phone": "721116532;",
            "supplierName": "CABINET MEDICAL MEDICINA GENERALA ADULTI DR. CADARIU ADRIANA",
            "lat": 45.9973418,
            "lng": 21.4565243
        },
        {
            "address": "TIMISOARA, STR.CORIOLAN BREDICEANU NR.11",
            "contractNo": "68",
            "email": "georgetacaizer@yahoo.com",
            "medicName": "CAIZER GEORGETA",
            "phone": "227039 0741151453",
            "supplierName": "CABINET MEDICAL DR.CAIZER",
            "lat": 45.75606,
            "lng": 21.222334
        },
        {
            "address": "TIMISOARA; P.SEC. TIMISOARA, STR.V.GOLDIS NR.5; STR.STAN VIDRIGHIN NR.30",
            "contractNo": "69",
            "email": "drgolea@yahoo.com",
            "medicName": "CALAGIU GABRIELA IOZEFA",
            "phone": "490662; 0720222742:",
            "supplierName": "CABINET MEDICINA GENERALA DR. GOLEA MARIUS",
            "lat": 45.757739,
            "lng": 21.2349919
        },
        {
            "address": "SANPETRU MARE, NR.387",
            "contractNo": "70",
            "email": "constantin.cab2000@gmail.com",
            "medicName": "CAMAROSCHI CONSTANTIN",
            "phone": "0744562916",
            "supplierName": "CABINET MEDICAL MEDICINA GENERALA DR. CAMAROSCHI CONSTATNTIN",
            "lat": 46.05,
            "lng": 20.666667
        },
        {
            "address": "LUGOJ, STR.NERA NR.40 BL.40,AP.3",
            "contractNo": "71",
            "email": "ecaterina.cavasdan@gmail.com",
            "medicName": "CAVASDAN ECATERINA",
            "phone": "723504762",
            "supplierName": "CENTRU MEDICAL  DR. E CAVASDAN SRL",
            "lat": 45.693157,
            "lng": 21.902554
        },
        {
            "address": "NITCHIDORF, NR.212",
            "contractNo": "72",
            "email": "dr.cristinacerbu@yahoo.com",
            "medicName": "CERBU CRISTINA",
            "phone": "724103959",
            "supplierName": "CABINET MEDICAL DR.CERBU",
            "lat": 45.578502,
            "lng": 21.5359018
        },
        {
            "address": "TIMISOARA, STR.TEIULUI NR.14",
            "contractNo": "73",
            "email": "tamara.ceregan@gmail.com",
            "medicName": "CEREGAN TAMARA",
            "phone": "356431754; 0727327317",
            "supplierName": "CABINET MEDICAL MEDICINA GENERALA ADULTI  DR. CEREGAN TAMARA",
            "lat": 45.7488716,
            "lng": 21.2086793
        },
        {
            "address": "TIMISOARA, STR.S.BOCU NR.33",
            "contractNo": "74",
            "email": "zanfira.cretu@gmail.com",
            "medicName": "CERNAZANU GLAVAN    MIHAELA",
            "phone": "282889; '0723334112",
            "supplierName": "CABINET MEDICAL MEDICINA GENERALA DR.CRETU ZANFIRA",
            "lat": 45.7488716,
            "lng": 21.2086793
        },
        {
            "address": "RECAS, NR.122",
            "contractNo": "75",
            "email": "melindacernescu@yahoo.com",
            "medicName": "CERNESCU COSMIN LAURENTIU",
            "phone": "330150; '0744616920",
            "supplierName": "CABINET MEDICAL DR. CERNESCU",
            "lat": 44.4042063,
            "lng": 26.0636525
        },
        {
            "address": "SANNICOLAUL MARE, STR.V.BABES NR.5",
            "contractNo": "76",
            "email": "virgil.chipei@yahoo.com",
            "medicName": "CHIPEI VIRGIL FLORIN",
            "phone": "723970500",
            "supplierName": "CABINET MEDICAL MEDICINA GENERALA ADULTI DR. CHIPEI VIRGIL",
            "lat": 46.0593374,
            "lng": 20.622454
        },
        {
            "address": "TOPOLOVATUL MARE, NR.169",
            "contractNo": "77",
            "email": "doctorchirita@gmail.com",
            "medicName": "CHIRITA LIVIA MARIA",
            "phone": "722673413",
            "supplierName": "CABINET MEDICAL MEDICINA GENERALA ADULTI DR. CHIRITA LIVIA MARIA",
            "lat": 45.7740465,
            "lng": 21.6240283
        },
        {
            "address": "UTVIN;           P.SEC. TIMISOARA, STR.PRINCIPALA NR.98;                     Str. Martir Spiru Blanaru, bl.50,ap.1",
            "contractNo": "78",
            "email": "dia12dr@yahoo.com",
            "medicName": "CHIUARIU DIANA OCTAVIA",
            "phone": "0745632212",
            "supplierName": "CABINET MEDICINA DE FAMILIE ARTEMIS",
            "lat": 45.7614142,
            "lng": 21.2053956
        },
        {
            "address": "TIMISOARA, STR. TEBEA  NR. 7 , AP.1",
            "contractNo": "79",
            "email": "erikaciavin@yahoo.com",
            "medicName": "CIAVIN ERIKA",
            "phone": "728325540",
            "supplierName": "CABINET MEDICAL MEDICINA DE FAMILIE DR.CIAVIN ERIKA",
            "lat": 45.755403,
            "lng": 21.2070943
        },
        {
            "address": "TIMISOARA, STR.NATURII NR.3,SC.C,AP.4",
            "contractNo": "80",
            "email": "cabmedtim@gmail.com",
            "medicName": "CICA LILIANA JENICA",
            "phone": "482967; 0723567440",
            "supplierName": "CABINET MEDICAL DR.CICA LILIANA",
            "lat": 45.70091660000001,
            "lng": 21.2298388
        },
        {
            "address": "TIMISOARA , P-TA AXENTE SEVER NR.2",
            "contractNo": "81",
            "email": "camelia.cicala@yahoo.com",
            "medicName": "CICALA CAMELIA",
            "phone": "720267415",
            "supplierName": "CABINET MEDICAL MEDICINA GENERALA DR.CICALA CAMELIA",
            "lat": 45.7377595,
            "lng": 21.2297525
        },
        {
            "address": "TIMISOARA, STR.TEIULUI NR.14",
            "contractNo": "82",
            "email": "dr.cioata.svetlana@gmail.com",
            "medicName": "CIOATA SVETLANA",
            "phone": "421105; 0744116440",
            "supplierName": "CABINET MEDICAL DR. CIOATA SVETLANA",
            "lat": 45.7488716,
            "lng": 21.2086793
        },
        {
            "address": "TIMISOARA, STR.CARABUSULUI NR.15",
            "contractNo": "83",
            "email": "doctorciobanas@yahoo.com",
            "medicName": "CIOBANAS CAMELIA FELICIA",
            "phone": "287797; 0745629219",
            "supplierName": "CABINET MEDICAL DR. CIOBANAS",
            "lat": 45.762327,
            "lng": 21.28041
        },
        {
            "address": "BRESTOVAT; P.SEC TOPOLOVAT , NR.163; 173",
            "contractNo": "84",
            "email": "constantinciocsirescu58@yahoo.com",
            "medicName": "CIOCSIRESCU CONSTANTIN",
            "phone": "0723520190",
            "supplierName": "CABINET MEDICAL- DISPENSAR MEDICAL COMUNAL BRESTOVAT",
            "lat": 45.8737158,
            "lng": 21.6790179
        },
        {
            "address": "ORTISOARA                  , NR.301",
            "contractNo": "85",
            "email": "ciolofan_adrian@yahoo.com",
            "medicName": "CIOLOFAN ADRIAN",
            "phone": "0722469136",
            "supplierName": "CABINET MEDICAL MEDICINA GENERALA DR. CIOLOFAN ADRIAN",
            "lat": 45.967036,
            "lng": 21.1971165
        },
        {
            "address": "GATAIA, REPUBLICII 78",
            "contractNo": "86",
            "email": "camelia_ciresan@yahoo.com",
            "medicName": "CIRESAN CAMELIA",
            "phone": "740317014;     0256-410130",
            "supplierName": "CABINET MEDICAL DR.CIRESAN CAMELIA",
            "lat": 45.42652090000001,
            "lng": 21.4309592
        },
        {
            "address": "MOSNITA NOUA          , STR.C.BUZIASULUI NR.84",
            "contractNo": "87",
            "email": "cab.dr.ciucure.ionica@gmail.com",
            "medicName": "CIUCURE IONICA",
            "phone": "0745648676; '0356456980",
            "supplierName": "CABINET MEDICAL DR.STOIAN SRL",
            "lat": 45.7206388,
            "lng": 21.3156456
        },
        {
            "address": "TIMISOARA;        P. SEC. DUMBRAVITA, STR.                       AL. RIPENSIA NR.30; STR.GH.DOJA NR.38",
            "contractNo": "88",
            "email": "lucian_ciucurel@yahoo.com",
            "medicName": "CIUCUREL LUCIAN CORNELIU NICOLAE",
            "phone": "0722379770;    0356-805138",
            "supplierName": "CABINET ANATOMIC EKG",
            "lat": 44.4267674,
            "lng": 26.1025384
        },
        {
            "address": "TIMISOARA, STR. BRANDUSEI NR.18,SCB,AP.4",
            "contractNo": "89",
            "email": "dciuc@yahoo.com",
            "medicName": "CIUCURITA DANIEL",
            "phone": "754954401;    0256-424115",
            "supplierName": "CABINET MEDICAL DR.CIUCURITA DANIEL",
            "lat": 45.7683611,
            "lng": 21.2197286
        },
        {
            "address": "TIMISOARA, STR. MARTIR CERNAIANU  NR.8A",
            "contractNo": "90",
            "email": "anusca.clitan64@gmail.com",
            "medicName": "CLITAN ANUSCA",
            "phone": "226573; 0745253511",
            "supplierName": "CENTRUL MEDICAL  DR.CLITAN SRL",
            "lat": 45.7659639,
            "lng": 21.2116217
        },
        {
            "address": "LUGOJ, STR.TESATORILOR NR.16/B",
            "contractNo": "91",
            "email": "vitalmedtm@gmail.com",
            "medicName": "COCAINA EUGENIA MONICA",
            "phone": "352424;             0761663457",
            "supplierName": "VITALMED SRL",
            "lat": 45.6735243,
            "lng": 21.9102851
        },
        {
            "address": "CHISODA; P.SEC.GIROC, STR.NICOLAE FIRU NR.50; STR. TRANDAFIRILOR NR.24",
            "contractNo": "92",
            "email": "cm.dr.acimov@gmail.com",
            "medicName": "CODILA ANA DIANA",
            "phone": "0744892427",
            "supplierName": "CABINET MEDICAL DR. TOMA VIANA",
            "lat": 45.7038332,
            "lng": 21.2121718
        },
        {
            "address": "CRICIOVA, NR.78",
            "contractNo": "93",
            "email": "mariana_geta_constantinescu@yahoo.com",
            "medicName": "CONSTANTINESCU MARIANA GETA",
            "phone": "335850; '0748102551",
            "supplierName": "CABINET MEDICINA GENERALA DR. CONSTANTINESCU",
            "lat": 45.6306769,
            "lng": 22.0671431
        },
        {
            "address": "TIMISOARA, STR.ST.O.IOSIF NR.6,BL.8,SC.B,  AP.1",
            "contractNo": "94",
            "email": "c_anamihaela@yahoo.com",
            "medicName": "CORBAN ANA MIHAELA",
            "phone": "744880776",
            "supplierName": "CENTRU MEDICAL DR. CORBAN SRL",
            "lat": 45.752921,
            "lng": 21.251822
        },
        {
            "address": "TIMISOARA, STR. INTR.VANTULUI NR.1,SC.B,AP.1",
            "contractNo": "95",
            "email": "simonapopa03@yahoo.com",
            "medicName": "CORICOVAC SIMONA ANGELA",
            "phone": "744621770;",
            "supplierName": "CABINET MEDICAL DR. SIMONA CORICOVAC",
            "lat": 45.7488716,
            "lng": 21.2086793
        },
        {
            "address": "CARANI, NR.88I",
            "contractNo": "96",
            "email": "cmmfcornin@yahoo.com",
            "medicName": "CORNIN MADALINA GETA",
            "phone": "745772946;          0256-38838",
            "supplierName": "CABINET MEDICAL MEDICINA DE FAMILIE DR.CORNIN MADALINA",
            "lat": 45.9095952,
            "lng": 21.1599785
        },
        {
            "address": "LOVRIN P.SEC.GOTTLOB, NR.253; STR.PRINCIPALA NR.695",
            "contractNo": "97",
            "email": "gheorghe.cotosman@cclmed.ro",
            "medicName": "COTOSMAN GHEORGHE",
            "phone": "381021; '0766523133",
            "supplierName": "CABINET MEDICAL MEDICINA GENERALA DR. COTOSMAN",
            "lat": 45.9361807,
            "lng": 20.7092811
        },
        {
            "address": "TIMISOARA, STR.SF. AP. PETRU SI PAVEL NR.15, BL A 40, PARTER",
            "contractNo": "98",
            "email": "curetean.raluca@yahoo.com",
            "medicName": "COTUNA  RALUCA CLAUDIA",
            "phone": "0723439803;    0256-228836",
            "supplierName": "CABINET MEDICAL MEDICINA DE FAMILIE DR.CURETEAN RALUCA CLAUDIA",
            "lat": 45.7762959,
            "lng": 21.2360636
        },
        {
            "address": "TIMISOARA, B-DUL DAMBOVITA NR.2C",
            "contractNo": "99",
            "email": "crainicdrlia@gmail.com",
            "medicName": "CRAINIC LIA",
            "phone": "245284; '0356451617; '0723602581",
            "supplierName": "CABINET MEDICAL MEDICINA GENERALA ADULTI DR. CRAINIC LIA",
            "lat": 45.7488716,
            "lng": 21.2086793
        },
        {
            "address": "TIMISOARA, STR.SEVER BOCU NR.33",
            "contractNo": "100",
            "email": "zanfira.cretu@gmail.com",
            "medicName": "CRETU ZANFIRA",
            "phone": "282889; '0723334112",
            "supplierName": "CABINET MEDICAL MEDICINA GENERALA DR.CRETU ZANFIRA",
            "lat": 45.7738066,
            "lng": 21.2315607
        },
        {
            "address": "TIMISOARA, STR.TEIULUI NR.7",
            "contractNo": "101",
            "email": "cristeamariana@gmail.com",
            "medicName": "CRISTEA MARIANA",
            "phone": "447102; '0722600197",
            "supplierName": "CABINET MEDICAL DR. CRISTEA MARIANA",
            "lat": 45.7636903,
            "lng": 21.2185358
        },
        {
            "address": "TIMISOARA, STR.TEIULUI NR.7",
            "contractNo": "102",
            "email": "cristescusolomia@gmail.com",
            "medicName": "CRISTESCU SOLOMIA",
            "phone": "0723232129",
            "supplierName": "CABINET MEDICAL MEDICINA GENERALA DR.CRISTESCU SOLOMIA",
            "lat": 45.7636903,
            "lng": 21.2185358
        },
        {
            "address": "TIMISOARA, STR.V.BABES NR.21",
            "contractNo": "103",
            "email": "rodica_nicoara@ymail.com",
            "medicName": "CUCEU ELENA",
            "phone": "0723319337; 0356008216",
            "supplierName": "CABINET DR.RODICA NICOARA- MEDICINA GENERALA ADULTI",
            "lat": 45.7448227,
            "lng": 21.2337787
        },
        {
            "address": "SANMIHAIUL ROMAN;         P.SEC SANMIHAIUL GERMAN, NR.1                           NR.68/B",
            "contractNo": "104",
            "email": "bryonia.alba15@yahoo.com",
            "medicName": "CUTUI ILEANA FLORENTINA",
            "phone": "745601930",
            "supplierName": "CABINET MEDICAL MEDICINA GENERALA ADULTI DR. CUTUI ILEANA",
            "lat": 45.7117394,
            "lng": 21.0293482
        },
        {
            "address": "VARIAS ; P.SEC.SANDRA, STR.PRINCIPALA NR.551; BL.100",
            "contractNo": "105",
            "email": "cabinetdrmiscavariascjastm@gmail.com",
            "medicName": "DAGAU ADINA VALERIA",
            "phone": "387301; 0744554463",
            "supplierName": "CABINET MEDICAL MEDICINA GENERALA DR. MISCA",
            "lat": 44.4267674,
            "lng": 26.1025384
        },
        {
            "address": "TIMISOARA, STR. C.STERE NR.12",
            "contractNo": "106",
            "email": "dr.danieladan2018@yahoo.com",
            "medicName": "DAN DANIELA",
            "phone": "227007; '0744879149",
            "supplierName": "CABINET MEDICAL DR. DAN DANIELA",
            "lat": 45.76999199999999,
            "lng": 21.217258
        },
        {
            "address": "COMLOSUL MARE, NR.604",
            "contractNo": "107",
            "email": "cdmf2018@yahoo.com",
            "medicName": "DANCIU CRISTIAN",
            "phone": "720531316",
            "supplierName": "CABINET MEDICAL INDIVIDUAL DR.CRISTIAN DANCIU",
            "lat": 45.8925508,
            "lng": 20.6250906
        },
        {
            "address": "TIMISOARA, STR.RENASTERII           NR. 17",
            "contractNo": "108",
            "email": "ldanadavid@gmail.com",
            "medicName": "DAVID DANIELA LUMINITA",
            "phone": "0256-220614     0724822790",
            "supplierName": "CABINET MEDICAL MEDICINA DE FAMILIE DR. DAVID DANIELA",
            "lat": 45.7488716,
            "lng": 21.2086793
        },
        {
            "address": "LUGOJ, STR.D.CANTEMIR NR.10",
            "contractNo": "109",
            "email": "cmdejica@yahoo.com",
            "medicName": "DEJICA IOSIF",
            "phone": "358997; ' 0724719830",
            "supplierName": "S.C. CENTRUL MEDICAL DR.DEJICA SRL",
            "lat": 45.692626,
            "lng": 21.920645
        },
        {
            "address": "SANNICOLAU MARE, STR. VICTOR BABES    NR.5",
            "contractNo": "110",
            "email": "diaconescu.mirela.maria@gmail.com",
            "medicName": "DIACONESCU MIRELA MARIA",
            "phone": "0256-372855        0721305125",
            "supplierName": "CABINET MEDICAL MEDICINA DE FAMILIE DR.DIACONESCU MIRELA MARIA",
            "lat": 46.071794,
            "lng": 20.622005
        },
        {
            "address": "UIVAR -               P. SEC.BOBDA;   P. SEC.OTELEC, NR.52 A;  NR.164;   NR.471",
            "contractNo": "111",
            "email": "cabmeddrdima@yahoo.com",
            "medicName": "DIMA ADRIAN CLAUDIU",
            "phone": "0256-366524;            0723240511;",
            "supplierName": "CABINET MEDICAL MEDICINA GENERALA DR. DIMA ADRIAN",
            "lat": 45.7367399,
            "lng": 20.9440934
        },
        {
            "address": "LUGOJ, STR.IMPARATUL TRAIAN NR.9",
            "contractNo": "112",
            "email": "RaportareCAS2018@gmail.com",
            "medicName": "DINU ELENA",
            "phone": "722683555;              0256-351313",
            "supplierName": "CABINET MEDICAL   DR. DINU ELENA SRL",
            "lat": 45.6909898,
            "lng": 21.9034608
        },
        {
            "address": "TIMISOARA, STR.A.IPATESCU NR.13 SC.B AP.1",
            "contractNo": "113",
            "email": "dobosvalentina@yahoo.com",
            "medicName": "DOBOS VALENTINA MIHAIELA",
            "phone": "722654594;     0256-240688",
            "supplierName": "CABINET MEDICAL DR. DOBOS VALENTINA",
            "lat": 45.7488716,
            "lng": 21.2086793
        },
        {
            "address": "BILED, STR.PRINCIPALA NR.418",
            "contractNo": "114",
            "email": "gruberandreea@yahoo.com",
            "medicName": "DODAN ANDREEA",
            "phone": "0256-377207;           0770925181",
            "supplierName": "CABINET MEDICAL MEDICINA DE FAMILIE DR.DODAN ANDREEA",
            "lat": 45.8885965,
            "lng": 20.9594878
        },
        {
            "address": "CENAD, NR.646",
            "contractNo": "115",
            "email": "mihaeladolga@yahoo.com",
            "medicName": "DOLGA MIHAELA",
            "phone": "724447112",
            "supplierName": "CABINET MEDICAL MEDICINA GENERALA DR. DOLGA MIHAELA",
            "lat": 44.4214788,
            "lng": 26.078264
        },
        {
            "address": "TIMISOARA, STR.A.IPATESCU NR.21BLOC.28 AP.2",
            "contractNo": "116",
            "email": "dolomet.cjas@gmail.com",
            "medicName": "DOLOMET CORINA",
            "phone": "741303788;0256-271145",
            "supplierName": "CABINET MEDICAL MEDICINA DE FAMILIE DR.DOLOMET CORINA",
            "lat": 45.7488716,
            "lng": 21.2086793
        },
        {
            "address": "SACALAZ, STR.IV NR.299",
            "contractNo": "117",
            "email": "dr.dorinsimona@gmail.com",
            "medicName": "DORIN SIMONA",
            "phone": "755855955",
            "supplierName": "CABINET MED.FAM.DR.DORIN SIMONA",
            "lat": 45.76036389999999,
            "lng": 21.1108836
        },
        {
            "address": "TIMISOARA, STR.LEANDRULUI NR.4,AP.2",
            "contractNo": "118",
            "email": "dorogostaiskymaria@gmail.com",
            "medicName": "DOROGOSTAISKY MARIA",
            "phone": "744622493",
            "supplierName": "CABINET MEDICAL DR.DOROGOSTAISKY",
            "lat": 45.7488716,
            "lng": 21.2086793
        },
        {
            "address": "SANNICOLAU MARE, STR.DECEBAL NR.15",
            "contractNo": "119",
            "email": "dr_dumitrualina@yahoo.com",
            "medicName": "DRAGAN-TEICU ALINA",
            "phone": "723281090;   0371-302300",
            "supplierName": "CABINET MEDICAL MEDICINA DE FAMILIE DR.DRAGAN TEICU ALINA",
            "lat": 46.073496,
            "lng": 20.6193728
        },
        {
            "address": "TIMISOARA, STR.ASTRILOR NR.4,SC.C,AP.3;",
            "contractNo": "120",
            "email": "maria.bogdana@yahoo.uk",
            "medicName": "DRAGHIA MARIA BOGDANA",
            "phone": "0356-467320;  0722672189",
            "supplierName": "CABINET MEDICAL MEDICINA DE FAMILIE DR.DRAGHIA BOGDANA",
            "lat": 45.736283,
            "lng": 21.2510179
        },
        {
            "address": "TIMISOARA, STR.GH. OSTROGOVICH (SITARULUI) NR.2 BL.64,SC.A,AP.1-2",
            "contractNo": "121",
            "email": "dr.dragoescu@gmail.com",
            "medicName": "DRAGOESCU DOMNICA",
            "phone": "0723678410; 0356451999",
            "supplierName": "SC SALPETRIER SRL CENTRUL MEDICAL DRAGOESCU",
            "lat": 45.7742923,
            "lng": 21.2251042
        },
        {
            "address": "TIMISOARA, STR.ETERNITATII ZONA STEAUA BL.53,SC.D,AP.2",
            "contractNo": "122",
            "email": "carmendragoi559@yahoo.com",
            "medicName": "DRAGOI CARMEN MARIA",
            "phone": "216051; 0744593755",
            "supplierName": "CABINET MEDICAL INDIVIDUAL DR. DRAGOI  CARMEN",
            "lat": 45.7488716,
            "lng": 21.2086793
        },
        {
            "address": "IGRIS, NR.339",
            "contractNo": "123",
            "email": "mihaialexandrudragos74@gmail.com",
            "medicName": "DRAGOS MIHAI",
            "phone": "774567136",
            "supplierName": "CABINET MEDICAL MEDICINA DE FAMILIE DR.DRAGOS MIHAI",
            "lat": 46.11112809999999,
            "lng": 20.7830695
        },
        {
            "address": "LUGOJ, STR.CUZA VODA NR.5",
            "contractNo": "124",
            "email": "drcarmendragulescu@gmail.com",
            "medicName": "DRAGULESCU CARMEN",
            "phone": "745603965; 0256353093",
            "supplierName": "CABINET MEDICAL MEDICINA GENERALA DR. DRAGULESCU CARMEN",
            "lat": 45.682085,
            "lng": 21.9025779
        },
        {
            "address": "GHIRODA -                       P. SEC. GIARMATA VII, STR.VALISOARA NR. 75/B: INFRATIRII NR.99 A",
            "contractNo": "125",
            "email": "f.dragulete@yahoo.com",
            "medicName": "DRAGULETE FLORICA",
            "phone": "209094; '0731621571",
            "supplierName": "CABINET MEDICAL DR. DRAGULETE FLORICA",
            "lat": 45.79889319999999,
            "lng": 21.2955363
        },
        {
            "address": "TIMISOARA, STR.BUCURESTI NR.15,SC.B AP.2",
            "contractNo": "126",
            "email": "eugenia.dronca@yahoo.com",
            "medicName": "DRONCA EUGENIA CRISTINA",
            "phone": "723769081; 436523",
            "supplierName": "CABINET MEDICAL MEDICINA GENERALA ADULTI DR. DRONCA EUGENIA",
            "lat": 45.7488716,
            "lng": 21.2086793
        },
        {
            "address": "TIMISOARA, STR.AL.MUZICII NR.10,BL.C14,ET.I, AP.5",
            "contractNo": "127",
            "email": "cabmedheradrdudas@yahoo.com",
            "medicName": "DUDAS ADRIAN IONEL",
            "phone": "722724460;      0256-240312",
            "supplierName": "CABINET MEDICAL HERA DR.DUDAS ADRIAN IONEL",
            "lat": 45.735459,
            "lng": 21.200716
        },
        {
            "address": "TIMISOARA, STR.ORASTIE  NR.3",
            "contractNo": "128",
            "email": "office@hapca.ro",
            "medicName": "DUDE  ECATERINA",
            "phone": "766432551; 0256219924",
            "supplierName": "SC HGT MED.S.R.L.",
            "lat": 45.7488716,
            "lng": 21.2086793
        },
        {
            "address": "TIMISOARA; P.SEC.GELU, STR.E.DE SAVOYA NR.24;                     NR.476",
            "contractNo": "129",
            "email": "dr.dumitra@yahoo.com",
            "medicName": "DUMITRA AURICA",
            "phone": "0723671675;           0256-294942",
            "supplierName": "CABINET MEDICAL MEDICINA GENERALA ADULTI DR. DUMITRA AURICA",
            "lat": 45.7488716,
            "lng": 21.2086793
        },
        {
            "address": "TIMISOARA; P.SEC.GELU, STR.E.DE SAVOYA NR.24;                     NR.476",
            "contractNo": "130",
            "email": "dr.dumitra@yahoo.com",
            "medicName": "DUMITRA IOAN MIHAIL",
            "phone": "0723671675;           0256-294942",
            "supplierName": "CABINET MEDICAL MEDICINA GENERALA ADULTI DR. DUMITRA AURICA",
            "lat": 45.7488716,
            "lng": 21.2086793
        },
        {
            "address": "TIMISOARA, B-DUL DAMBOVITA NR.2C",
            "contractNo": "131",
            "email": "drdumitracheadriana@gmail.com",
            "medicName": "DUMITRACHE ADRIANA FLORINA",
            "phone": "240984; 0722282137",
            "supplierName": "CABINET MEDICAL MEDICINA DE FAMILIE DR. DUMITRACHE",
            "lat": 45.7488716,
            "lng": 21.2086793
        },
        {
            "address": "JIMBOLIA, STR. REPUBLICII 12-14",
            "contractNo": "132",
            "email": "danielaelekes@yahoo.com",
            "medicName": "ELEKES DANIELA ANDRREA",
            "phone": "0256-360804     0723571572",
            "supplierName": "MED.FAM.DR.ELEKES DANIELA SRL",
            "lat": 45.7981407,
            "lng": 20.7180327
        },
        {
            "address": "TIMISOARA                            , STR.C.BUZIASULUI NR.1",
            "contractNo": "133",
            "email": "dr.engelhardt32@yahoo.com",
            "medicName": "ENGELHARDT DOINA",
            "phone": "222977; 0740116167",
            "supplierName": "CABINET MEDICAL DR. ENGELHARDT DOINA",
            "lat": 45.7488716,
            "lng": 21.2086793
        },
        {
            "address": "LUGOJ, STR.OLTULUI NR.3",
            "contractNo": "134",
            "email": "epure.danvasile@yahoo.com",
            "medicName": "EPURE DAN VASILE",
            "phone": "337147; 0723324556",
            "supplierName": "CABINET MEDICAL DR. DAN EPURE MEDICINA GENERALA & ECHOGRAFIE",
            "lat": 45.6821014,
            "lng": 21.9015617
        },
        {
            "address": "VOITEG, NR.81",
            "contractNo": "135",
            "email": "iolandacabinet@gmail.com",
            "medicName": "EROS IOLANDA",
            "phone": "0256-392405;        0746167980",
            "supplierName": "CABINET MEDICAL MEDICINA DE FAMILIE DR. EROS IOLANDA",
            "lat": 45.469255,
            "lng": 21.2373174
        },
        {
            "address": "TIMISOARA,  STR.IANCU FLONDOR NR.47",
            "contractNo": "136",
            "email": "medicaliss@gmail.com",
            "medicName": "FARCA LELIA SORINELA",
            "phone": "226599;  0744837443",
            "supplierName": "SOCIETATE CIVILA MEDICALA MEDICALI'S",
            "lat": 45.7680924,
            "lng": 21.2115081
        },
        {
            "address": "TIMISOARA, STR.I.VACARESCU NR.30 AP.4",
            "contractNo": "137",
            "email": "cabmed.drfaur@yahoo.com",
            "medicName": "FAUR VOICHITA MARTA",
            "phone": "490280; 0745201296",
            "supplierName": "CABINET MEDICAL DR. FAUR VOICHITA  MARTA",
            "lat": 45.744573,
            "lng": 21.209076
        },
        {
            "address": "LUGOJ, STR.OLTULUI NR.3",
            "contractNo": "138",
            "email": "cabfildiko19@gmail.com",
            "medicName": "FEKETE ILDIKO IZABELA",
            "phone": "0256/352766;  0728600592",
            "supplierName": "CABINET MEDICAL DR.FEKETE ILDIKO",
            "lat": 45.6821014,
            "lng": 21.9015617
        },
        {
            "address": "RECAS, NR.122",
            "contractNo": "139",
            "email": "matedoleanramona@gmail.com",
            "medicName": "FEKETE- MATEDOLEAN  CODRUTA RAMONA",
            "phone": "330336; 0743900900",
            "supplierName": "CABINET MEDICAL DR.MATEDOLEAN CODRUTA RAMONA",
            "lat": 44.4042063,
            "lng": 26.0636525
        },
        {
            "address": "VALCANI, STR.PRINCIPALA NR.851",
            "contractNo": "140",
            "email": "cab_med_dr_fitarau@yahoo.com",
            "medicName": "FITARAU MIHAI",
            "phone": "385207; '0723161752",
            "supplierName": "CABINET MEDICAL DR. FITARAU MIHAI",
            "lat": 46.0037928,
            "lng": 20.4014232
        },
        {
            "address": "LIVEZILE , NR.545",
            "contractNo": "141",
            "email": "fizesansonia@yahoo.com",
            "medicName": "FIZESAN SONIA GRETTA",
            "phone": "417021; 0722221987",
            "supplierName": "CABINET MEDICINA GENERALA DR. FIZESAN SONIA",
            "lat": 47.1864923,
            "lng": 24.5830613
        },
        {
            "address": "FOENI;      CRUCENI, NR.376;NR.36",
            "contractNo": "142",
            "email": "ramonaflorea2007@gmail.com",
            "medicName": "FLOREA RAMONA",
            "phone": "413417;    0744636009",
            "supplierName": "CABINET MEDICAL DR.FLOREA RAMONA",
            "lat": 45.4746597,
            "lng": 20.8769408
        },
        {
            "address": "BEBA VECHE; P.SEC CHERESTUR, NR.205",
            "contractNo": "143",
            "email": "rozyfolescu@yahoo.com",
            "medicName": "FOLESCU ROZALIA",
            "phone": "385508; 0726620661",
            "supplierName": "CABINET MEDICAL MEDICINA GENERALA ADULTI DR. FOLESCU ROZALIA",
            "lat": 46.1272562,
            "lng": 20.3853915
        },
        {
            "address": "TIMISOARA, STR.ANUL 1848 NR.31",
            "contractNo": "144",
            "email": "fortlavinia57@gmail.com",
            "medicName": "FORT LAVINIA NICULINA",
            "phone": "467550' 0721922679",
            "supplierName": "CABINET MEDICAL DR. FORT",
            "lat": 45.7224632,
            "lng": 21.2294388
        },
        {
            "address": "LUGOJ;                  P. SEC. V.V. DELAMARINA, STR.CERNEI NR.17; Nr.35",
            "contractNo": "145",
            "email": "frantescu.ana@gmail.com",
            "medicName": "FRANTESCU ANA",
            "phone": "356881; 0721299234",
            "supplierName": "CABINET MEDICAL MEDICINA GENERALA ADULTI DR. FRANTESCU",
            "lat": 45.640747,
            "lng": 21.8974725
        },
        {
            "address": "TIMISOARA, STR.MIHALI TEODOR NR.2",
            "contractNo": "146",
            "email": "frimioana@yahoo.com",
            "medicName": "FRIMU OANA MARIA",
            "phone": "722169471",
            "supplierName": "CABINET MEDICAL MED.DE FAM DR. FRIMU OANA",
            "lat": 45.7615774,
            "lng": 21.2359989
        },
        {
            "address": "CENEI   -                         P. SEC. CHECEA, NR.450; 182",
            "contractNo": "147",
            "email": "deliagabor@gmail.com",
            "medicName": "GABOR VALENTINA DELIA",
            "phone": "366418; 0726872425",
            "supplierName": "CABINET INDIVIDUAL DE PEDIATRIE DR. GABOR DELIA",
            "lat": 45.7539184,
            "lng": 20.8345976
        },
        {
            "address": "LUGOJ, STR.N. GRIGORESCU NR.8 AP.1",
            "contractNo": "148",
            "email": "ginagaidos@gmail.com",
            "medicName": "GAIDOS EUGENIA",
            "phone": "351161; 0722376080",
            "supplierName": "SC POLICLINICA 3S SRL",
            "lat": 45.676964,
            "lng": 21.899003
        },
        {
            "address": "SACOSUL TURCESC, NR.1",
            "contractNo": "149",
            "email": "galgabriel09@yahoo.com",
            "medicName": "GAL GABRIEL SABIN",
            "phone": "411404; '0744249352",
            "supplierName": "CABINET MEDICAL DR. GAL GABRIEL SABIN",
            "lat": 45.6544911,
            "lng": 21.4260905
        },
        {
            "address": "SACOSUL TURCESC, NR.1",
            "contractNo": "150",
            "email": "galgabriel09@yahoo.com",
            "medicName": "GAL ALEX",
            "phone": "411404; '0744249352",
            "supplierName": "CABINET MEDICAL DR. GAL GABRIEL SABIN",
            "lat": 45.6544911,
            "lng": 21.4260905
        },
        {
            "address": "BEREGSAU MARE, STR.I.NR.58",
            "contractNo": "151",
            "email": "lianagaman@yahoo.com",
            "medicName": "GAMAN CEAUSU LIANA SIMONA",
            "phone": "368008; 0721967870",
            "supplierName": "CABINET MEDICAL MEDICINA GENERALA ADULTI DR. GAMAN CEAUSU LIANA",
            "lat": 45.7622127,
            "lng": 21.0241428
        },
        {
            "address": "TIMISOARA, AL.ACTORILOR NR.4,AP.4",
            "contractNo": "152",
            "email": "dr.garleanul@yahoo.com",
            "medicName": "GARLEANU LILIANA BOMBONICA",
            "phone": "0722632077; 0256242078",
            "supplierName": "CABINET MEDICAL SANTE",
            "lat": 45.731705,
            "lng": 21.202808
        },
        {
            "address": "TIMISOARA, STR.MARTIR STEFAN MARIS NR.3,AP.4",
            "contractNo": "153",
            "email": "cabdrgavriladaniela@gmail.com",
            "medicName": "GAVRILA RODICA DANIELA",
            "phone": "0356449177; 0722732232",
            "supplierName": "CABINET MEDICAL DR.GAVRILA DANIELA",
            "lat": 45.733266,
            "lng": 21.2383527
        },
        {
            "address": "TIMISOARA, STR.C. MARTIRILOR NR.21,SC.B,AP.2",
            "contractNo": "154",
            "email": "mariagavruta@yahoo.com",
            "medicName": "GAVRUTA MARIA",
            "phone": "463791; 0722588564;",
            "supplierName": "S.C..GAVRUTA SRL",
            "lat": 45.7448227,
            "lng": 21.2337787
        },
        {
            "address": "TIMISOARA, P.SEC BILED; P.SEC- TIMISOARA, STR.DIMITRIE PACIUREA NR. 5; NR.418;  EUGENIU DE SAVOYA 11 AP. 8-9",
            "contractNo": "155",
            "email": "office@medicis.ro",
            "medicName": "GEORGESCU CORINA LORELEI TEODORA",
            "phone": "0729991522;   0729991529",
            "supplierName": "SC MICRO MEDIC SRL",
            "lat": 45.7574779,
            "lng": 21.2388015
        },
        {
            "address": "CEBZA; P.SEC.CIACOVA, Nr.177; STR.OBRADOVICI NR.3",
            "contractNo": "156",
            "email": "ovidiu_ghera@yahoo.com",
            "medicName": "GHERA OVIDIU CRISTINEL",
            "phone": "0746054016",
            "supplierName": "CABINET MEDICAL DR. GHERA OVIDIU CRISTINEL",
            "lat": 45.5514606,
            "lng": 21.0669946
        },
        {
            "address": "LUGOJ, STR.MAGNOLIEI NR. 1",
            "contractNo": "157",
            "email": "dr.floringherbon@yahoo.com",
            "medicName": "GHERBON FLORIN",
            "phone": "0256-353038      0740069071",
            "supplierName": "CABINET MEDICAL MEDICINA DE FAMILIE DR.GHERBON FLORIN",
            "lat": 45.68528999999999,
            "lng": 21.901413
        },
        {
            "address": "DUMBRAVA, NR.335",
            "contractNo": "158",
            "email": "ngherghina@yahoo.com",
            "medicName": "GHERGHINA NICOLAE",
            "phone": "325542;  0729969136",
            "supplierName": "CABINET MEDICAL MEDICINA DE FAMILIE DR.GHERGHINA NICOLAE",
            "lat": 44.4267674,
            "lng": 26.1025384
        },
        {
            "address": "REMETEA MARE ; P.SEC.IANOVA, 113; 186",
            "contractNo": "159",
            "email": "dr.ghergualina@gmail.com",
            "medicName": "GHERGU ALINA",
            "phone": "767795909",
            "supplierName": "CABINET MEDICAL MEDICINA DE FAMILIE DR.TARNICERU ALINA",
            "lat": 45.8405706,
            "lng": 21.4187628
        },
        {
            "address": "DUMBRAVA; P.SEC. MANASTUR, NR.335;287",
            "contractNo": "160",
            "email": "gghilezan@yahoo.com",
            "medicName": "GHILEZAN GHEORGHE",
            "phone": "325542; 0721503005",
            "supplierName": "CABINET MEDICAL           MEDICINA DE FAMILIE DR.GHILEZAN GHEORGHE",
            "lat": 44.4267674,
            "lng": 26.1025384
        },
        {
            "address": "TIMISOARA, STR.AZURULUI NR.2",
            "contractNo": "161",
            "email": "adinnamorar@gmail.com",
            "medicName": "GILCA ESTERA",
            "phone": "464350; 0747923721",
            "supplierName": "CABINET MEDICAL DR.MORAR ADINA",
            "lat": 45.7488716,
            "lng": 21.2086793
        },
        {
            "address": "TIMISOARA, STR.TEIULUI NR.14",
            "contractNo": "162",
            "email": "cmidrgiurgiudaniela@gmail.com",
            "medicName": "GIURGIU DANIELA MARIANA",
            "phone": "0256446575; 0744536794",
            "supplierName": "CABINET MEDICAL MEDICINA GENERALA DR. GIURGIU DANIELA",
            "lat": 45.7488716,
            "lng": 21.2086793
        },
        {
            "address": "TIMISOARA, STR.STELELOR NR.6,AP.2",
            "contractNo": "163",
            "email": "adi_glavan@yahoo.com",
            "medicName": "GLAVAN ANCA",
            "phone": "0744470740; 441835",
            "supplierName": "CABINET MEDICAL MEDICINA GENERALA MEDFAM",
            "lat": 45.7661875,
            "lng": 21.2189613
        },
        {
            "address": "TIMISOARA, B-DUL CETATII NR. 44",
            "contractNo": "164",
            "email": "claudia_iftode@yahoo.com",
            "medicName": "GOGA ANA MARIA FLAMINIA GHIZELA",
            "phone": "Dr. Iftode    0744477875",
            "supplierName": "SC SANO MED WEST S.R.L.",
            "lat": 45.7625991,
            "lng": 21.2107813
        },
        {
            "address": "TIMISOARA; P.SEC. TIMISOARA, STR.V.GOLDIS NR.5; STR.STAN VIDRIGHIN NR.30",
            "contractNo": "165",
            "email": "contractare@drgolea.ro",
            "medicName": "GOLEA MARIUS VALERIU",
            "phone": "490662; 0723158924;    0727126129 - Carmen",
            "supplierName": "CABINET MEDICINA GENERALA DR. GOLEA MARIUS",
            "lat": 45.757739,
            "lng": 21.2349919
        },
        {
            "address": "CURTEA, NR.255",
            "contractNo": "166",
            "email": "goronminodora@yahoo.com",
            "medicName": "GORON MINODORA ZENUTA",
            "phone": "334610; 0721881268",
            "supplierName": "CABINET MEDICAL DE MEDICINA GENERALA DR. GORON",
            "lat": 44.40799,
            "lng": 26.14234
        },
        {
            "address": "TIMISOARA;                DINIAS,  SF.APOSTOLI PETRU SI PAVEL,BLA95,SC.B;   NR.193",
            "contractNo": "167",
            "email": "silviugraure@yahoo.com",
            "medicName": "GRAURE SILVIU",
            "phone": "418602; '0721384813; 0764262094",
            "supplierName": "CABINET DR. GRAURE SILVIU MEDICINA GENERALA",
            "lat": 45.6520873,
            "lng": 21.0054729
        },
        {
            "address": "BOLDUR, NR.29",
            "contractNo": "168",
            "email": "cab.dr.groza.raluca@gmail.com",
            "medicName": "GROZA RALUCA OANA",
            "phone": "766375780",
            "supplierName": "CABINET MEDICAL MEDICINA DE FAMILIE DR.GROZA RALUCA",
            "lat": 45.6929475,
            "lng": 21.7822876
        },
        {
            "address": "PESAC, NR.282",
            "contractNo": "169",
            "email": "anagrui53@yahoo.com",
            "medicName": "GRUI ANA",
            "phone": "0729669986; 453657",
            "supplierName": "CABINET MEDICINA GENERALA DR. GRUI ANA",
            "lat": 45.9965924,
            "lng": 20.8359512
        },
        {
            "address": "MANASTIRE-COM.BIRDA, NR.28",
            "contractNo": "170",
            "email": "cmidrgruici@yahoo.com",
            "medicName": "GRUICI ADRIAN NICOLAE",
            "phone": "745149849",
            "supplierName": "CABINET MEDICAL MEDICINA DE FAMILIE DR.GRUICI",
            "lat": 45.407816,
            "lng": 21.334828
        },
        {
            "address": "RACOVITA ;         P. SEC.HITIAS , STR.PRINCIPALA",
            "contractNo": "171",
            "email": "liliana.gruin@gmail.com",
            "medicName": "GRUIN LILIANA DOINA",
            "phone": "0744630425",
            "supplierName": "CABINET MEDICAL RACOVITA, HITIAS, DRAGOESTI",
            "lat": 45.7102127,
            "lng": 21.5956895
        },
        {
            "address": "MARGINA, NR.257(288)",
            "contractNo": "172",
            "email": "margareta.gudasz@dsnet.ro",
            "medicName": "GUDASZ MARGARETA",
            "phone": "326162;     0724826380",
            "supplierName": "CABINET MEDICINA DE FAMILIE DR.GUDASZ MARGARETA",
            "lat": 44.4267674,
            "lng": 26.1025384
        },
        {
            "address": "TIMISOARA, STR.ALBAC NR.23 SC.A AP.1",
            "contractNo": "173",
            "email": "mfcidelmar@yahoo.com",
            "medicName": "GULER CIONCA DELIA MARIA ANTOANETA",
            "phone": "464046; 0745605135",
            "supplierName": "CABINET CIDELMAR",
            "lat": 45.7488716,
            "lng": 21.2086793
        },
        {
            "address": "GOTTLOB, NR.442",
            "contractNo": "174",
            "email": "dr.hagiilie@yahoo.com",
            "medicName": "HAGI ILIE RALUCA",
            "phone": "765644583",
            "supplierName": "CABINET MEDICAL MEDICINA DE FAMILIE DR.HAGI ILIE",
            "lat": 44.4142826,
            "lng": 26.0768218
        },
        {
            "address": "BILED;  P.SEC.TIMISOARA, STR.DIMITRIE PACIUREA NR. 5; NR.418",
            "contractNo": "175",
            "email": "office@medicis.ro",
            "medicName": "HAVRINCEA MARIUS",
            "phone": "729991519- DINULESCU;  0729991529-HAVRINCEA",
            "supplierName": "SC MICRO MEDIC SRL",
            "lat": 45.8885965,
            "lng": 20.9594878
        },
        {
            "address": "HERNEACOVA; P.SEC.RECAS, NR. 19;                          P-TA SF.TREIME NR.5",
            "contractNo": "176",
            "email": "heinrich.ildiko.cjastm@gmail.com",
            "medicName": "HEINRICH ILDIKO",
            "phone": "0745380775;",
            "supplierName": "CABINET MEDICAL DR.HEINRICH ILDIKO",
            "lat": 45.861106,
            "lng": 21.5165239
        },
        {
            "address": "TIMISOARA, STR.MARTIR IANOS PARIS NR.11",
            "contractNo": "177",
            "email": "heler_carmen@yahoo.com",
            "medicName": "HELER CARMEN",
            "phone": "462904; 0723334139",
            "supplierName": "CABINET MEDICAL MEDICINA GENERALA HELERCRIV",
            "lat": 45.7327076,
            "lng": 21.2291662
        },
        {
            "address": "TIMISOARA, STR.SEVER BOCU NR.33",
            "contractNo": "178",
            "email": "herteg.dorina@yahoo.com",
            "medicName": "HERTEG DORINA",
            "phone": "0356460234; 0724343745",
            "supplierName": "CABINET MEDICAL MEDICINA GENERALA PEDIATRIE DR.HERTEG DORINA",
            "lat": 45.7738066,
            "lng": 21.2315607
        },
        {
            "address": "GRABAT, 275 B",
            "contractNo": "179",
            "email": "cmmf.grabat@gmail.com",
            "medicName": "HOTA ELENA",
            "phone": "0256-363759;     0721793796",
            "supplierName": "CABINET MEDICAL MEDICINA DE FAMILIE DR. HOTA ELENA",
            "lat": 44.4267674,
            "lng": 26.1025384
        },
        {
            "address": "TIMISOARA, STR.C.DAMSESCU NR.40 AP.7- 8",
            "contractNo": "180",
            "email": "dr_iacob@yahoo.com",
            "medicName": "IACOB MIHAI SORIN",
            "phone": "454346; 0722303054",
            "supplierName": "SOCIETATE CIVILA MEDICALA - CENTRUL MEDICAL ADVITAM- MEDICIS SRL",
            "lat": 45.74106159999999,
            "lng": 21.1993119
        },
        {
            "address": "TIMISOARA, STR.BAADER NR.1,AP.1",
            "contractNo": "181",
            "email": "iana_andreea@yahoo.de",
            "medicName": "IANA ANDREEA NARCISA",
            "phone": "744655698",
            "supplierName": "CABINET MEDICAL MEDICINA INTERNA SI MF DR. IANA ANDREEA-NARCISA",
            "lat": 45.7623781,
            "lng": 21.2445584
        },
        {
            "address": "TIMISOARA, STR.BAADER NR.1,AP.1",
            "contractNo": "182",
            "email": "iana_andreea@yahoo.de",
            "medicName": "IANA ELENA CRISTINA",
            "phone": "430481",
            "supplierName": "CABINET MEDICAL MEDICINA INTERNA SI MF DR. IANA ANDREEA-NARCISA",
            "lat": 45.7623781,
            "lng": 21.2445584
        },
        {
            "address": "GIARMATA, STR.MORII NR. 835",
            "contractNo": "183",
            "email": "cmmfdri@yahoo.com",
            "medicName": "IANCU CIPRIAN",
            "phone": "727832811",
            "supplierName": "CABINET MEDICINA DE FAMILIE DR.IANCU CIPRIAN",
            "lat": 45.837335,
            "lng": 21.3044144
        },
        {
            "address": "TIMISOARA, STR.TEBEA NR.7",
            "contractNo": "184",
            "email": "iavorschi_diana@yahoo.com",
            "medicName": "IAVORSCHI OLIMPIA DIANA",
            "phone": "472039; 0723260218",
            "supplierName": "CABINET MEDICAL MEDICINA GENERALA DR. IAVORSCHI OLIMPIA DIANA",
            "lat": 45.755403,
            "lng": 21.2070943
        },
        {
            "address": "JIMBOLIA, STR.REPUBLICII NR.12-14",
            "contractNo": "185",
            "email": "ibramtatiana@gmail.com",
            "medicName": "IBRAM TATIANA",
            "phone": "360804; 0766564455",
            "supplierName": "CABINET MEDICAL DR.IBRAM TATIANA",
            "lat": 45.7976585,
            "lng": 20.7180035
        },
        {
            "address": "TIMISOARA ; P.SEC.TIMISOARA, STR.I.PLAVOSIN NR.31;       STR.CETATII NR.85",
            "contractNo": "186",
            "email": "claudia_iftode@yahoo.com",
            "medicName": "IFTODE CLAUDIA",
            "phone": "0256443084; 0744477875",
            "supplierName": "CABINET MEDICAL DR.IFTODE",
            "lat": 45.768324,
            "lng": 21.210299
        },
        {
            "address": "IECEA MARE                  , STR. NR.127",
            "contractNo": "187",
            "email": "ilana_codrin@rocketmail.com",
            "medicName": "ILANA CODRIN",
            "phone": "0721978383",
            "supplierName": "CABINET MEDICAL INDIVIDUAL DR.ILANA CODRIN",
            "lat": 45.8514579,
            "lng": 20.8943262
        },
        {
            "address": "TIMISOARA, STR.V.BABES NR.21",
            "contractNo": "188",
            "email": "bogolea.cjas@gmail.com",
            "medicName": "ILIESCU  CORINA",
            "phone": "228690; 494041",
            "supplierName": "DR.BOGOLEA& DR.MARGAN CABINET MEDICAL MEDICINA DE FAMILIE",
            "lat": 45.7448227,
            "lng": 21.2337787
        },
        {
            "address": "CENEI;                  P.SEC CHECEA , NR. 450;                         NR.182",
            "contractNo": "189",
            "email": "dr.ioana.cab@gmail.com",
            "medicName": "IOANA ALIONA",
            "phone": "731856578;   0256-366107",
            "supplierName": "CABINET MEDICAL  DR.IOANA SRL",
            "lat": 45.7539184,
            "lng": 20.8345976
        },
        {
            "address": "TIMISOARA, B-DUL C.COPOSU NR.24 AP.3",
            "contractNo": "190",
            "email": "ovidiu_ioia@yahoo.com",
            "medicName": "IOIA DOINA",
            "phone": "202992; 0721261465",
            "supplierName": "SOCIETATE CIVILA MEDICALA DR.IOIA",
            "lat": 45.7488716,
            "lng": 21.2086793
        },
        {
            "address": "MOSNITA NOUA          P. SEC. MOSNITA VECHE,  NR.43;",
            "contractNo": "191",
            "email": "janina.ionescu@uahoo.com",
            "medicName": "IONESCU JANINA",
            "phone": "00744790000",
            "supplierName": "MEDICAL PRAXIS - DR. IONESCU JANINA",
            "lat": 45.7335323,
            "lng": 21.3257136
        },
        {
            "address": "TIMISOARA, STR. EMANOIL GOJDU NR.13; AP 13",
            "contractNo": "192",
            "email": "eva.marza@yahoo.com",
            "medicName": "IPATE LILIANA EUGENIA",
            "phone": "0256/491611;    0723768375",
            "supplierName": "CABINET MEDICAL MEDICINA DE FAMILIE DR. IPATE LILIANA",
            "lat": 45.7479975,
            "lng": 21.2136474
        },
        {
            "address": "PERIAM, NR.673",
            "contractNo": "193",
            "email": "lucia.jifcovici@yahoo.com",
            "medicName": "ISAI LUCIA EMILIA",
            "phone": "0726023191; 375891",
            "supplierName": "CABINET MEDICAL DR. JIFCOVICI- ISAI LUCIA EMILIA",
            "lat": 46.0443663,
            "lng": 20.8723729
        },
        {
            "address": "FARDEA, NR.131",
            "contractNo": "194",
            "email": "istrat.virginica@yahoo.com",
            "medicName": "ISTRAT VIRGINICA",
            "phone": "335401; 0732639050, 0734810277",
            "supplierName": "CABINET MEDICAL MEDICINA GENERALA DR. ISTRAT VIRGINICA",
            "lat": 45.7359142,
            "lng": 22.160165
        },
        {
            "address": "DETA, STR.INFRATIRII NR.20",
            "contractNo": "195",
            "email": "iunacico_georgeta@yahoo.com",
            "medicName": "IUNACICO GEORGETA",
            "phone": "0761576300; 390106",
            "supplierName": "CABINET MEDICAL INDIVIDUAL MEDICINA GENERALA ADULTI - DR. IUNACICO GEORGETA",
            "lat": 45.3977401,
            "lng": 21.2255847
        },
        {
            "address": "TIMISOARA, STR.DOROBANTI -LALELELOR NR.E11,SC.C,AP.1",
            "contractNo": "196",
            "email": "ivan_simona_oana@yahoo.com",
            "medicName": "IVAN SIMONA OANA",
            "phone": "256-205911;    0762311741",
            "supplierName": "CABINET MEDICAL MEDICINA DE FAMILIE DR. IVAN SIMONA",
            "lat": 45.7488716,
            "lng": 21.2086793
        },
        {
            "address": "BARNA, NR.11",
            "contractNo": "197",
            "email": "dr.mircea.ivanov@gmail.com",
            "medicName": "IVANOV MIRCEA",
            "phone": "0727275447; 0256334465;   0727471460- COPIL",
            "supplierName": "CABINET MEDICAL DR.IVANOV MIRCEA",
            "lat": 44.4267674,
            "lng": 26.1025384
        },
        {
            "address": "TIMISOARA, Str.MARESAL A.AVERESCU NR.37,AP.1",
            "contractNo": "198",
            "email": "ivascucosmina@yahoo.com",
            "medicName": "IVASCU ELENA COSMINA",
            "phone": "744634145; 0372746310",
            "supplierName": "CABINET MEDICAL DR.IVASCU E.COSMINA",
            "lat": 45.732142,
            "lng": 21.2301971
        },
        {
            "address": "SANNICOLAUL MARE; P.SEC.TOMNATIC, STR.M.VITEAZUL  NR.2",
            "contractNo": "199",
            "email": "terapiajebeleanu2007@gmail.com",
            "medicName": "JEBELEANU ROXANA",
            "phone": "374466; 0728295439",
            "supplierName": "TERAPIA- CABINET MEDICAL DR.JEBELEAN ROXANA SRL",
            "lat": 45.9898152,
            "lng": 20.6617944
        },
        {
            "address": "BUZIAS, STR.A.SAGUNA NR.18;",
            "contractNo": "200",
            "email": "drdanielasavu@gmail.com",
            "medicName": "JICMUND MIRUNA CODRUTA",
            "phone": "321104",
            "supplierName": "CABINET MEDICAL DR.SAVU DANIELA IULIA",
            "lat": 45.6445655,
            "lng": 21.5993275
        },
        {
            "address": "LUGOJ, STR.MAGNOLIEI NR. 1",
            "contractNo": "201",
            "email": "dr.floringherbon@yahoo.com",
            "medicName": "JIENARIU CORNELIA",
            "phone": "0256-353038      0740069071",
            "supplierName": "CABINET MEDICAL MEDICINA DE FAMILIE DR.GHERBON FLORIN",
            "lat": 45.68528999999999,
            "lng": 21.901413
        },
        {
            "address": "TIMISOARA, STR.E.DE SAVOYA NR.11 AP.8-9",
            "contractNo": "202",
            "email": "dr.daniela.jinaru@gmail.com",
            "medicName": "JINARU DANIELA",
            "phone": "431488; '0744471369",
            "supplierName": "CABINET MEDICAL MEDICINA DE FAMILIE DR.JINARU DANIELA",
            "lat": 45.7488716,
            "lng": 21.2086793
        },
        {
            "address": "TIMISOARA, STR. SEVER BOCU NR.320",
            "contractNo": "203",
            "email": "jompan.a@yahoo.com",
            "medicName": "JOMPAN AFILON",
            "phone": "283024; 0722318354-Jompan;   0740046522 -Gruescu",
            "supplierName": "CABINET MEDICAL PROF. DR. JOMPAN AFILON S.R.L.",
            "lat": 45.77439500000001,
            "lng": 21.232658
        },
        {
            "address": "TIMISOARA, STR.ST.O.IOSIF BL.B8 AP.1",
            "contractNo": "204",
            "email": "jrcpetru@yahoo.com",
            "medicName": "JURCA PETRU",
            "phone": "209007; 0726257827",
            "supplierName": "CENTRU MEDICAL DR. JURCA PETRU CM SRL",
            "lat": 45.7539417,
            "lng": 21.2530806
        },
        {
            "address": "BEREGSAU MARE, STR.IV NR.267",
            "contractNo": "205",
            "email": "drjurjiroxana@gmail.com",
            "medicName": "JURJI VIRGINIA ROXANA",
            "phone": "368226;    0744690104",
            "supplierName": "CAB.MED.MEDICINA DE FAM. DR.JURJI",
            "lat": 45.7622127,
            "lng": 21.0241428
        },
        {
            "address": "JIMBOLIA, C.TIMISORII NR.9",
            "contractNo": "206",
            "email": "radu_livia85@yahoo.com",
            "medicName": "KISS CORNELIA",
            "phone": "723695410",
            "supplierName": "CABINET MEDICAL MEDICINA DE FAMILIE DR.RADU LIVIA",
            "lat": 45.7994279,
            "lng": 20.7119596
        },
        {
            "address": "LIEBLING, NR.569-570",
            "contractNo": "207",
            "email": "cabinetmedicalKCD@gmail.com",
            "medicName": "KLEMENS CLAUDIU",
            "phone": "727449569; 0256396402",
            "supplierName": "CABINET MEDICAL DR.KLEMENS CLAUDIU",
            "lat": 44.4267674,
            "lng": 26.1025384
        },
        {
            "address": "LIEBLING, NR.57",
            "contractNo": "208",
            "email": "cabinetmedicalKCD@gmail.com",
            "medicName": "KLEMENS DIANA MIORITA",
            "phone": "396402; 0723261137",
            "supplierName": "CABINET MEDICAL DR. KLEMENS DIANA - MIORITA",
            "lat": 45.5818018,
            "lng": 21.3176601
        },
        {
            "address": "TORMAC;      , NR.343;",
            "contractNo": "209",
            "email": "pety_doky@yahoo.com",
            "medicName": "KOVACS PETRU",
            "phone": "0723356789",
            "supplierName": "CABINET MEDICAL DR. KOVACS PETRU",
            "lat": 45.522941,
            "lng": 21.4920903
        },
        {
            "address": "GHIRODA, STR.VICTORIA NR.71;",
            "contractNo": "210",
            "email": "a.koussini@yahoo.com",
            "medicName": "KOUSSINI ALINA",
            "phone": "0356415820;  0723263227",
            "supplierName": "CABINET MEDICAL DR. KOUSSINI ALINA",
            "lat": 45.768765,
            "lng": 21.3032548
        },
        {
            "address": "DENTA, NR. 717",
            "contractNo": "211",
            "email": "cab.lrd@yahoo.com",
            "medicName": "LADARIU IONELA ADELA",
            "phone": "0766530568;    0722560448",
            "supplierName": "CABINET MEDICAL DR.LADARIU",
            "lat": 44.450917,
            "lng": 26.0499653
        },
        {
            "address": "TIMISOARA, STR.L.REBREANU NR.124",
            "contractNo": "212",
            "email": "mf.ioanalakatos@yahoo.com",
            "medicName": "LAKATOS IOANA",
            "phone": "495675; 0724374768",
            "supplierName": "CABINET MEDICAL MEDICINA DE FAMILIE DR.LAKATOS IOANA",
            "lat": 45.7377238,
            "lng": 21.2357117
        },
        {
            "address": "HONORICI, NR.165",
            "contractNo": "213",
            "email": "drlazarmaria55@yahoo.com",
            "medicName": "LAZAR MARIA",
            "phone": "788670843",
            "supplierName": "CABINET MEDICAL MEDICINA GENERALA ADULTI DR.LAZAR MARIA",
            "lat": 45.6167801,
            "lng": 21.9088652
        },
        {
            "address": "TIMISOARA, STR.CRAIOVA NR.5",
            "contractNo": "214",
            "email": "adriana.medic@yahoo.com",
            "medicName": "LAZAROAIA ADRIANA MIHAELA",
            "phone": "222851; 0726344014",
            "supplierName": "CABINET MEDICAL CHRISTIANA-DR. LAZAROAIA ADRIANA",
            "lat": 45.7428,
            "lng": 21.2387686
        },
        {
            "address": "TIMISOARA, STR.A.IMBROANE NR.25 AP. 2",
            "contractNo": "215",
            "email": "lep.dorina.cmi@gmail.com",
            "medicName": "LEP DORINA",
            "phone": "0372769444; 0723619845",
            "supplierName": "CABINET MEDICAL INDIVIDUAL  - DR. LEP",
            "lat": 45.7681056,
            "lng": 21.2481694
        },
        {
            "address": "FAGET, TRAIAN VUIA NR.5 AP.5",
            "contractNo": "216",
            "email": "leucamarioara@yahoo.com",
            "medicName": "LEUCA MARIOARA GEORGETA",
            "phone": "320069; '0726210731",
            "supplierName": "CABINET MEDICAL MEDICINA GENERALA ACUPUNCTURA          TAO - MED",
            "lat": 45.85279569999999,
            "lng": 22.1729057
        },
        {
            "address": "TIMISOARA, STR.C.SAGULUI NR.20",
            "contractNo": "217",
            "email": "cmdrlinu@gmail.com",
            "medicName": "LINU MIHAELA",
            "phone": "744690389",
            "supplierName": "CABINET MEDICAL DR.LINU",
            "lat": 45.7328609,
            "lng": 21.2083568
        },
        {
            "address": "TIMISOARA, STR.C.SAGULUI NR.20",
            "contractNo": "218",
            "email": "cmdrlinu@gmail.com",
            "medicName": "LINU PAUL ALEXANDRU",
            "phone": "744690389",
            "supplierName": "CABINET MEDICAL DR.LINU",
            "lat": 45.7328609,
            "lng": 21.2083568
        },
        {
            "address": "TIMISOARA, STR. SIMION BARNUTIU NR. 21 CORP A-C1",
            "contractNo": "219",
            "email": "drlombreacamelia@gmail.com",
            "medicName": "LOMBREA CAMELIA",
            "phone": "0356265091; 0744704244",
            "supplierName": "CABINET MEDICAL MEDICINA DE FAMILIE DR. LOMBREA",
            "lat": 45.7636911,
            "lng": 21.2514067
        },
        {
            "address": "TIMISOARA, C.BUZIASULUI NR.28",
            "contractNo": "220",
            "email": "rodiluca@yahoo.com",
            "medicName": "LUCA RODICA",
            "phone": "285828; 0744557752",
            "supplierName": "CABINET MEDICAL MEDICINA GENERALA PEDIATRIE DR. LUCA RODICA",
            "lat": 45.7321684,
            "lng": 21.2596458
        },
        {
            "address": "CARPINIS, NR.82",
            "contractNo": "221",
            "email": "lucaci.paul@yahoo.com",
            "medicName": "LUCACI PAUL",
            "phone": "0256/365245;    723912229",
            "supplierName": "CABINET  MEDICAL MED.FAM.DR.LUCACI PAUL",
            "lat": 44.4151493,
            "lng": 26.1786583
        },
        {
            "address": "DRAGOIESTI, -",
            "contractNo": "222",
            "email": "mclucaciu@gmail.com",
            "medicName": "LUCACIU MIRCEA CIPRIAN",
            "phone": "724090862",
            "supplierName": "CABINET MEDICAL MEDICINA DE FAMILIE DR.LUCACIU CIPRIAN",
            "lat": 44.4267674,
            "lng": 26.1025384
        },
        {
            "address": "TIMISOARA, STR.CETATII NR.38 AP.7",
            "contractNo": "223",
            "email": "clici_clici@yahoo.com",
            "medicName": "LUNGULESCU IOAN CLAUDIU",
            "phone": "0722582936; 0356171114",
            "supplierName": "CABINET MEDICAL MEDICINA GENERALA ADULTI DR. LUNGULESCU",
            "lat": 45.761042,
            "lng": 21.21056
        },
        {
            "address": "TIMISOARA, STR.MENDELEEV NR.2",
            "contractNo": "224",
            "email": "dr.orban@yahoo.com",
            "medicName": "LUP AGNETA RALUCA",
            "phone": "426095;            0744624744",
            "supplierName": "CABINET MEDICAL DR. ORBAN IANOS",
            "lat": 45.7488716,
            "lng": 21.2086793
        },
        {
            "address": "TIMISOARA, STR.V.BABES NR.33-35,AP.4",
            "contractNo": "225",
            "email": "ana60lupescu@yahoo.com",
            "medicName": "LUPESCU ANA",
            "phone": "0356446116; 0744525504",
            "supplierName": "CABINET MEDICAL DR.LUPESCU ANA",
            "lat": 45.7488716,
            "lng": 21.2086793
        },
        {
            "address": "TIMISOARA, AL.MUZICII NR.10  AP.5",
            "contractNo": "226",
            "email": "rodicalupsa@yahoo.com",
            "medicName": "LUPSA RODICA PAULINA",
            "phone": "240312;  0722677712",
            "supplierName": "CABINET MEDICAL HERA DR.LUPSA RODICA PAULINA",
            "lat": 45.735459,
            "lng": 21.200716
        },
        {
            "address": "PADURENI, NR.217",
            "contractNo": "227",
            "email": "lenutalupsor@gmail.com",
            "medicName": "LUPSOR LENUTA",
            "phone": "411031; 0787511505",
            "supplierName": "CABINET MEDICAL PADURENI",
            "lat": 44.4536408,
            "lng": 26.0474112
        },
        {
            "address": "LUGOJ, STR.TIMISOAREI BL.57,SC.A,AP.20",
            "contractNo": "228",
            "email": "lupulescu_raul@yahoo.com",
            "medicName": "LUPULESCU IOAN",
            "phone": "766355045",
            "supplierName": "CENTRUL MEDICAL DR.LUPULESCU SRL",
            "lat": 45.6909898,
            "lng": 21.9034608
        },
        {
            "address": "LUGOJ, AL.PINILOR NR.5",
            "contractNo": "229",
            "email": "lupulescu_raul@yahoo.com",
            "medicName": "LUPULESCU MONICA LIVIA",
            "phone": "336078; 0766213033",
            "supplierName": "CABINET MEDICAL  MEDICINA GENERALA PEDIATRIE DR. LUPULESCU MONICA LIVIA",
            "lat": 45.690276,
            "lng": 21.907645
        },
        {
            "address": "LUGOJ, STR.TIMISOAREI BL.57,SC.A,AP.20",
            "contractNo": "230",
            "email": "lupulescu_raul@yahoo.com",
            "medicName": "LUPULESCU RAUL",
            "phone": "766407887",
            "supplierName": "CENTRUL MEDICAL DR.LUPULESCU SRL",
            "lat": 45.6909898,
            "lng": 21.9034608
        },
        {
            "address": "PECIU NOU, NR.481",
            "contractNo": "231",
            "email": "cornelia.magiaru@gmail.com",
            "medicName": "MAGIARU CORNELIA",
            "phone": "257414520; 0723207489",
            "supplierName": "CABINET MEDICINA GENERALA PEDIATRIE DR. MAGIARU CORNELIA",
            "lat": 44.4010478,
            "lng": 26.0803561
        },
        {
            "address": "TIMISOARA, STR.C.TIN PREZAN  NR.15",
            "contractNo": "232",
            "email": "contractdr.pirjol@gmail.com",
            "medicName": "MAKAI MIHAELA",
            "phone": "0356432550;   0747505436",
            "supplierName": "SC ABC CENTRUL MEDICAL DR.PIRJOL SRL",
            "lat": 45.7317241,
            "lng": 21.2380708
        },
        {
            "address": "SANANDREI, NR.517",
            "contractNo": "233",
            "email": "cmmfdrmalaimaresilviu@gmail.com",
            "medicName": "MALAIMARE SILVIU",
            "phone": "0256383586;  0740137650",
            "supplierName": "CABINET MEDICAL DR.MALAIMARE SILVIU",
            "lat": 45.8533993,
            "lng": 21.1681272
        },
        {
            "address": "TIMISOARA, STR,CHISODEI NR.5",
            "contractNo": "234",
            "email": "marcusv_y@yahoo.com",
            "medicName": "MARCU SORIN VALERIU",
            "phone": "0766342579;   0256/707735",
            "supplierName": "ASCLEPIOS SVM SRL",
            "lat": 45.724977,
            "lng": 21.2092959
        },
        {
            "address": "TIMISOARA, STR.C. MARTIRILOR NR.21,SC.B,AP.2",
            "contractNo": "235",
            "email": "alexandrasalomia@yahoo.com",
            "medicName": "MARCULESCU DOMNITA BALASA",
            "phone": "462151; 0725972070",
            "supplierName": "CABINET MEDICAL MEDICINA DE FAMILIE DR.SALOMIA OANA",
            "lat": 45.7448227,
            "lng": 21.2337787
        },
        {
            "address": "TIMISOARA, STR.BABADAG NR. 11, BL. 19, AP. 1",
            "contractNo": "236",
            "email": "dorinamarila@yahoo.com",
            "medicName": "MARILA DORINA",
            "phone": "300552; 0758083733",
            "supplierName": "CABINET MEDICAL MEDICINA GENERALA DR. MARILA DORINA",
            "lat": 45.775855,
            "lng": 21.2620739
        },
        {
            "address": "FAGET, STR.TRAIAN VUIA NR.5",
            "contractNo": "237",
            "email": "flaviamarcu@yahoo.com",
            "medicName": "MARINCONI MARCU FLAVIA STELUTA",
            "phone": "320199;      0744604644",
            "supplierName": "CABINET MEDICINA GENERALA FLAVIMED",
            "lat": 45.85279569999999,
            "lng": 22.1729057
        },
        {
            "address": "TIMISOARA, B-DUL REVOLUTIEI NR.2",
            "contractNo": "238",
            "email": "marinescu123@yahoo.com",
            "medicName": "MARINESCU AUREL",
            "phone": "724856780",
            "supplierName": "CABINET MEDICAL DR.MARINESCU",
            "lat": 45.7488716,
            "lng": 21.2086793
        },
        {
            "address": "TIMISOARA, B-DUL REVOLUTIEI NR.2",
            "contractNo": "239",
            "email": "marinescu123@yahoo.com",
            "medicName": "MARINESCU MIRELA CLAUDIA",
            "phone": "293696;  0721227215",
            "supplierName": "CABINET MEDICAL DR.MARINESCU",
            "lat": 45.7488716,
            "lng": 21.2086793
        },
        {
            "address": "TIMISOARA, STR.C. BRANCOVEANU NR.105",
            "contractNo": "240",
            "email": "ambulatorcliniceuropa.office@gmail.com",
            "medicName": "MARISESCU MIHAELA GEORGETA",
            "phone": "0356/829992",
            "supplierName": "SCM AMBULATOR CLINIC EUROPA",
            "lat": 45.7488716,
            "lng": 21.2086793
        },
        {
            "address": "TIMISOARA,  STR.MARTIRILOR  NR. 66A",
            "contractNo": "241",
            "email": "marusteriovidiu@gmail.com",
            "medicName": "MARUSTERI OVIDIU",
            "phone": "0744634070; 486458;            0741741876",
            "supplierName": "CABINET MEDICAL DR.MARUSTERI OVIDIU",
            "lat": 45.7312832,
            "lng": 21.2355166
        },
        {
            "address": "TIMISOARA, STR.PIATRA CRAIULUI NR.3",
            "contractNo": "242",
            "email": "dr.mateciuc@yahoo.com",
            "medicName": "MATECIUC IUSTIN",
            "phone": "491089; 0722742811",
            "supplierName": "CABINET MEDICAL MEDICINA GENERALA DR.MATECIUC IUSTIN",
            "lat": 45.752759,
            "lng": 21.223942
        },
        {
            "address": "DETA, STR.INFRATIRII NR.20",
            "contractNo": "243",
            "email": "cabdrmatesadela@gmail.com",
            "medicName": "MATES ADELA",
            "phone": "0744638609;0256390248",
            "supplierName": "CABINET MEDICAL DR.MATES ADELA SRL",
            "lat": 45.3977401,
            "lng": 21.2255847
        },
        {
            "address": "TIMISOARA, STR. ACADEMICIAN PETRE P. NEGULESCU, nr. 9, BL. 135, Ap2",
            "contractNo": "244",
            "email": "cab.matusz.anca@gmail.com",
            "medicName": "MATUSZ ANCA ALEXANDRA",
            "phone": "210499; 0723236099",
            "supplierName": "CABINET MEDICAL DR.MATUSZ",
            "lat": 45.7726307,
            "lng": 21.2443198
        },
        {
            "address": "LUGOJ, STR.N. GRIGORESCU NR.14",
            "contractNo": "245",
            "email": "sandinam@yahoo.com",
            "medicName": "MECHIU SANDINA",
            "phone": "359858; 0729011041",
            "supplierName": "CABINET MEDICAL DR. SANDINA MECHIU MEDIC PRIMAR MEDICINA GENERALA MEDIC DE FAMILIE",
            "lat": 45.6909898,
            "lng": 21.9034608
        },
        {
            "address": "TIMISOARA; , C.SAGULUI NR.20;",
            "contractNo": "246",
            "email": "flavius.cioca@reginamaria.ro",
            "medicName": "MICLO ALINA FLORINA",
            "phone": "0356-912;     0723317202",
            "supplierName": "SC CENTRUL MEDICAL UNIREA",
            "lat": 45.7328609,
            "lng": 21.2083568
        },
        {
            "address": "TIMISOARA, STR.GH.LAZAR      NR.36-40",
            "contractNo": "247",
            "email": "dr.miculescuileana@gmail.com",
            "medicName": "MICULESCU ILEANA",
            "phone": "723226615",
            "supplierName": "CABINET MEDICAL DR.MICULESCU ILEANA",
            "lat": 45.7612949,
            "lng": 21.215906
        },
        {
            "address": "TIMISOARA, STR.I.I.DE LA BRAD,BL.37,SC.B, AP.2",
            "contractNo": "248",
            "email": "micutviorica@yahoo.com",
            "medicName": "MICUT VIORICA",
            "phone": "281168; 0741239611",
            "supplierName": "CABINET MEDICAL MEDICINA GENERALA TIMIS- DR. MICUT VIORICA",
            "lat": 45.7758822,
            "lng": 21.2506045
        },
        {
            "address": "DAROVA                      , NR.151",
            "contractNo": "249",
            "email": "iuliana.cristinamihaescu@yahoo.com",
            "medicName": "MIHAESCU IULIANA",
            "phone": "0723410914;     0256232320",
            "supplierName": "CABINET MEDICAL MEDICINA GENERALA DAMIRA",
            "lat": 45.6400709,
            "lng": 21.7678744
        },
        {
            "address": "SANNICOLAU MARE , STR.REPUBLICII NR.10;",
            "contractNo": "250",
            "email": "dr.vladimir.mihaescu@gmail.com",
            "medicName": "MIHAESCU VLADIMIR VALENTIN",
            "phone": "0740095046",
            "supplierName": "CABINET MEDICAL MEDICINA GENERALA DR. MIHAESCU VLADIMIR VALENTIN",
            "lat": 46.071321,
            "lng": 20.6259279
        },
        {
            "address": "ORTISOARA -                 P. SEC.CALACEA, STR.,PRINCIPALA NR.301; NR.290",
            "contractNo": "251",
            "email": "carmen.mihai86@yahoo.com",
            "medicName": "MIHAI CARMEN",
            "phone": "233175; 0722433870",
            "supplierName": "CABINET MEDICAL DR. MIHAI CARMEN",
            "lat": 45.9516382,
            "lng": 21.1481856
        },
        {
            "address": "BOGDA, NR.76",
            "contractNo": "252",
            "email": "mihalas.cristian@yahoo.com",
            "medicName": "MIHALAS CRISTIAN MARCEL",
            "phone": "0356447601;0727762390",
            "supplierName": "CABINET MEDICAL MEDICINA GENERALA MILISAN BOGDA",
            "lat": 44.4267674,
            "lng": 26.1025384
        },
        {
            "address": "DENTA, NR.717",
            "contractNo": "253",
            "email": "raven_26rf@yahoo.com",
            "medicName": "MIHALCA SEVER CLAUDIU",
            "phone": "744132034",
            "supplierName": "CABINET MEDICAL MEDICINA DE FAMILIE DR.MIHALCA",
            "lat": 44.450917,
            "lng": 26.0499653
        },
        {
            "address": "LUGOJ ;                P. SEC,COSTEIU          , STR.SPL.L DECEMBRIE 1918 BL.26,AP.12",
            "contractNo": "254",
            "email": "dr_milea@yahoo.com",
            "medicName": "MILEA PETRU GHEORGHE",
            "phone": "326712; 0744184894",
            "supplierName": "CABINET MEDICAL DR.MILEA MEDICINA GENERALA ADULTI SI PEDIATRIE",
            "lat": 45.74470119999999,
            "lng": 21.846051
        },
        {
            "address": "LUGOJ-                P. SEC.COSTEIU            , STR.SPL.L DECEMBRIE 1918 BL.26,AP.12;",
            "contractNo": "255",
            "email": "dr_milea@yahoo.com",
            "medicName": "MILEA VIORICA",
            "phone": "326712; 0744184894",
            "supplierName": "CABINET MEDICAL DR. MILEA MEDICINA GENERALA ADULTI SI PEDIATRIE",
            "lat": 45.74470119999999,
            "lng": 21.846051
        },
        {
            "address": "TIMISOARA, STR.CHISODEI NR.5",
            "contractNo": "256",
            "email": "nicoleta.mioc@gmail.com",
            "medicName": "MIOC NICOLETA",
            "phone": "216016;     0723334146",
            "supplierName": "CABINET MEDICAL TERAPIA-DR.MIOC NICOLETA",
            "lat": 45.724977,
            "lng": 21.2092959
        },